{"_t": 1776952676.2985923, "_k": "tc_42.951_-1.792_43.547_-0.746", "value": {"version": 0.6, "generator": "Overpass API 0.7.62.11 87bfad18", "osm3s": {"timestamp_osm_base": "2026-04-23T13:56:35Z", "copyright": "The data included in this document is from www.openstreetmap.org. The data is made available under ODbL."}, "elements": [{"type": "node", "id": 192311529, "lat": 43.3867968, "lon": -1.6663927, "tags": {"ferry": "yes", "public_transport": "stop_position"}}, {"type": "node", "id": 244041834, "lat": 43.4991376, "lon": -1.54006, "tags": {"bus": "yes", "public_transport": "stop_position"}}, {"type": "node", "id": 249874033, "lat": 43.018844, "lon": -0.9576158, "tags": {"bus": "yes", "public_transport": "stop_position"}}, {"type": "node", "id": 252532603, "lat": 43.2297292, "lon": -1.3021318, "tags": {"bus": "yes", "name": "Pont d'Arrossa", "network": "Txik Txak", "public_transport": "stop_position"}}, {"type": "node", "id": 253478983, "lat": 43.479647, "lon": -1.5184549, "tags": {"bus": "yes", "name": "Cotonnière", "public_transport": "stop_position"}}, {"type": "node", "id": 253825981, "lat": 43.4591073, "lon": -1.5458752, "tags": {"local_ref": "1", "name": "Biarritz", "public_transport": "stop_position", "railway": "stop", "railway:position:exact": "207.291", "train": "yes", "uic_ref": "8767340"}}, {"type": "node", "id": 253936930, "lat": 43.3499053, "lon": -1.4152633, "tags": {"bus": "yes", "name": "Altzueta", "public_transport": "stop_position"}}, {"type": "node", "id": 254056165, "lat": 43.3531513, "lon": -1.7819545, "tags": {"level": "0", "local_ref": "1", "name": "Hendaye", "name:es": "Hendaya", "name:eu": "Hendaia", "name:fr": "Hendaye", "operator": "SNCF Gares & Connexions", "operator:wikidata": "Q3098278", "public_transport": "stop_position", "railway": "stop", "railway:position:exact": "232.796", "train": "yes", "uic_ref": "8767700"}}, {"type": "node", "id": 254643787, "lat": 43.4795887, "lon": -1.5586593, "tags": {"bus": "yes", "public_transport": "stop_position"}}, {"type": "node", "id": 255179834, "lat": 43.34166, "lon": -1.7712714, "tags": {"bus": "yes", "public_transport": "stop_position"}}, {"type": "node", "id": 256059513, "lat": 43.493471, "lon": -1.5534406, "tags": {"bus": "yes", "public_transport": "stop_position"}}, {"type": "node", "id": 256347860, "lat": 43.32501, "lon": -1.6008099, "tags": {"ele": "169", "name": "Saint-Ignace", "operator": "EPSA", "public_transport": "stop_position", "railway": "stop", "train": "yes"}}, {"type": "node", "id": 270959632, "lat": 43.480241, "lon": -1.5197024, "tags": {"bus": "yes", "name": "Louillot", "public_transport": "stop_position"}}, {"type": "node", "id": 371763898, "lat": 43.5245474, "lon": -0.9108471, "tags": {"local_ref": "A", "name": "Puyoô", "operator": "SNCF Gares & Connexions", "operator:wikidata": "Q3098278", "public_transport": "stop_position", "railway": "stop", "railway:position:exact": "270.225", "train": "yes", "uic_ref": "8767227", "wikidata": "Q1846734", "wikipedia": "fr:Gare de Puyoô"}}, {"type": "node", "id": 387616223, "lat": 43.4970985, "lon": -1.4703435, "tags": {"local_ref": "C", "name": "Bayonne", "public_transport": "stop_position", "railway": "stop", "railway:position:exact": "197.555", "source": "BDOrtho IGN", "train": "yes", "uic_ref": "8767300"}}, {"type": "node", "id": 388382483, "lat": 43.4936545, "lon": -1.4747449, "tags": {"bus": "yes", "name": "Mairie de Bayonne", "name:oc": "Mairetat de Baiona", "public_transport": "stop_position", "source:name:oc": "Lo Congrès", "wikidata": "Q89804238"}}, {"type": "node", "id": 443814963, "lat": 43.4546606, "lon": -1.5329951, "tags": {"bus": "yes", "public_transport": "stop_position"}}, {"type": "node", "id": 447991002, "lat": 43.2198988, "lon": -0.8900386, "tags": {"bus": "yes", "name": "Herriko Etxea", "network": "Txik Txak", "public_transport": "stop_position"}}, {"type": "node", "id": 449753743, "lat": 43.3617531, "lon": -1.7899997, "tags": {"bus": "yes", "name": "Sabin Arana kalea 3", "public_transport": "stop_position"}}, {"type": "node", "id": 451704159, "lat": 43.117626, "lon": -0.8643319, "tags": {"bus": "yes", "public_transport": "stop_position"}}, {"type": "node", "id": 478838176, "lat": 43.241585, "lon": -1.2855039, "tags": {"bus": "yes", "public_transport": "stop_position"}}, {"type": "node", "id": 480071556, "lat": 43.3654534, "lon": -1.7921813, "tags": {"bench": "yes", "bin": "no", "bus": "yes", "highway": "bus_stop", "lit": "no", "name": "Sabin Arana (Ama Guadalupekoa ikastetxea)", "public_transport": "platform", "shelter": "yes"}}, {"type": "node", "id": 504754821, "lat": 43.3244433, "lon": -0.7732109, "tags": {"bench": "yes", "bus": "yes", "highway": "bus_stop", "name": "Carrefour La Chapelle", "public_transport": "platform", "ref:FR:CCBG": "20 bis", "shelter": "yes"}}, {"type": "node", "id": 554204594, "lat": 43.509764, "lon": -1.4682176, "tags": {"bench": "yes", "bin": "no", "bus": "yes", "highway": "bus_stop", "lit": "yes", "name": "Côte du Moulin", "operator": "Chronoplus", "public_transport": "platform", "shelter": "yes", "tactile_paving": "no"}}, {"type": "node", "id": 554250777, "lat": 43.5037135, "lon": -1.4636433, "tags": {"bench": "no", "bin": "no", "bus": "yes", "highway": "bus_stop", "name": "Saint-Étienne", "public_transport": "platform", "shelter": "no"}}, {"type": "node", "id": 570056247, "lat": 43.5092013, "lon": -1.4636558, "tags": {"bench": "yes", "bin": "yes", "bus": "yes", "highway": "bus_stop", "name": "Osteys", "public_transport": "platform", "shelter": "yes", "tactile_paving": "no"}}, {"type": "node", "id": 570056250, "lat": 43.5030618, "lon": -1.467918, "tags": {"bus": "yes", "name": "Matràs", "public_transport": "stop_position"}}, {"type": "node", "id": 570057234, "lat": 43.5033615, "lon": -1.4510731, "tags": {"bench": "yes", "bin": "yes", "bus": "yes", "highway": "bus_stop", "lit": "yes", "name": "Marcel Breuer", "public_transport": "platform", "shelter": "yes", "tactile_paving": "no"}}, {"type": "node", "id": 570057236, "lat": 43.5004872, "lon": -1.4563146, "tags": {"bus": "yes", "highway": "bus_stop", "name": "Place des Gascons", "public_transport": "platform", "shelter": "yes"}}, {"type": "node", "id": 570750506, "lat": 43.5064617, "lon": -1.4673213, "tags": {"bench": "yes", "bin": "no", "bus": "yes", "covered": "yes", "highway": "bus_stop", "lit": "yes", "name": "Camayou", "public_transport": "platform", "shelter": "yes", "tactile_paving": "no"}}, {"type": "node", "id": 570750507, "lat": 43.5069503, "lon": -1.4795362, "tags": {"bench": "no", "bin": "no", "bus": "yes", "highway": "bus_stop", "lit": "no", "name": "Laharie", "public_transport": "platform", "shelter": "no", "tactile_paving": "no"}}, {"type": "node", "id": 570750595, "lat": 43.5070183, "lon": -1.4796323, "tags": {"bus": "yes", "name": "Laharie", "public_transport": "stop_position"}}, {"type": "node", "id": 570751002, "lat": 43.5035935, "lon": -1.4638498, "tags": {"bench": "yes", "bin": "yes", "bus": "yes", "highway": "bus_stop", "lit": "yes", "name": "Saint-Étienne", "public_transport": "platform", "shelter": "yes", "tactile_paving": "yes"}}, {"type": "node", "id": 578088547, "lat": 43.5098274, "lon": -1.4644841, "tags": {"bus": "yes", "name": "Sainsontan", "public_transport": "stop_position"}}, {"type": "node", "id": 597456125, "lat": 43.3200234, "lon": -0.9239353, "tags": {"bench": "yes", "bus": "yes", "highway": "bus_stop", "name": "La Croix", "public_transport": "platform", "shelter": "yes", "wheelchair": "no"}}, {"type": "node", "id": 597456126, "lat": 43.3198849, "lon": -0.9239165, "tags": {"bench": "no", "bus": "yes", "highway": "bus_stop", "name": "La Croix", "public_transport": "platform", "shelter": "no"}}, {"type": "node", "id": 597616145, "lat": 43.4929422, "lon": -1.4734149, "tags": {"bench": "yes", "bin": "yes", "bus": "yes", "covered": "yes", "highway": "bus_stop", "lit": "yes", "name": "Échauguette - Museoak", "name:oc": "Tor deu Reduit-Los Musèus", "public_transport": "platform", "shelter": "yes", "source:name:oc": "Lo Congrès", "tactile_paving": "no"}}, {"type": "node", "id": 597781940, "lat": 43.2698421, "lon": -0.9633083, "tags": {"highway": "bus_stop", "name": "Oyhercq", "public_transport": "platform", "shelter": "yes"}}, {"type": "node", "id": 675649017, "lat": 43.4093052, "lon": -1.6199952, "tags": {"bus": "yes", "name": "Jaldai", "public_transport": "stop_position"}}, {"type": "node", "id": 715265410, "lat": 43.3703192, "lon": -1.3991167, "tags": {"bus": "yes", "name": "Behereko Plaza", "public_transport": "stop_position"}}, {"type": "node", "id": 721737578, "lat": 43.4644883, "lon": -1.5422992, "tags": {"bus": "yes", "name": "Z.A. Biarritz", "public_transport": "stop_position"}}, {"type": "node", "id": 727156901, "lat": 43.3938245, "lon": -1.6414383, "tags": {"bus": "yes", "name": "Les Hauts", "network": "Txik Txak", "operator": "Hegobus", "public_transport": "stop_position"}}, {"type": "node", "id": 738866904, "lat": 43.4309788, "lon": -1.59839, "tags": {"bus": "yes", "public_transport": "stop_position"}}, {"type": "node", "id": 748510877, "lat": 43.4791332, "lon": -1.5586075, "tags": {"bus": "yes", "public_transport": "stop_position"}}, {"type": "node", "id": 750015441, "lat": 43.3258284, "lon": -1.0260254, "tags": {"bus": "yes", "name": "Hôpital de Saint-Palais", "public_transport": "stop_position"}}, {"type": "node", "id": 750942363, "lat": 43.4758575, "lon": -1.5111351, "tags": {"bus": "yes", "public_transport": "stop_position"}}, {"type": "node", "id": 766927462, "lat": 43.4407891, "lon": -1.4080176, "tags": {"bus": "yes", "name": "Ibargoïty", "public_transport": "stop_position"}}, {"type": "node", "id": 766932116, "lat": 43.4421558, "lon": -1.4125647, "tags": {"bus": "yes", "name": "Urbizi", "public_transport": "stop_position"}}, {"type": "node", "id": 766932176, "lat": 43.4441728, "lon": -1.4160481, "tags": {"bus": "yes", "name": "Villa Hoki", "public_transport": "stop_position"}}, {"type": "node", "id": 776197729, "lat": 43.2682787, "lon": -1.3453332, "tags": {"name": "Pont Noblia-Bidarray", "name:eu": "Bidarrai-Nobilia Zubia", "official_name": "Bidarray-Pont-Noblia", "operator": "SNCF Gares & Connexions", "operator:wikidata": "Q3098278", "public_transport": "stop_position", "railway": "stop", "railway:position:exact": "232.925", "train": "yes", "uic_ref": "8767369"}}, {"type": "node", "id": 780092224, "lat": 43.4476716, "lon": -1.5561119, "tags": {"bench": "yes", "bin": "yes", "highway": "bus_stop", "lit": "no", "name": "Antoine d'Abbadie", "network": "Chronoplus", "public_transport": "platform", "shelter": "yes", "tactile_paving": "yes"}}, {"type": "node", "id": 803732809, "lat": 43.3351198, "lon": -1.7704787, "tags": {"bus": "yes", "name": "San Martzial", "public_transport": "stop_position"}}, {"type": "node", "id": 848448928, "lat": 43.4202996, "lon": -1.6073882, "tags": {"bench": "yes", "bin": "yes", "bus": "yes", "departures_board": "timetable", "highway": "bus_stop", "lit": "no", "name": "Église", "name:eu": "Eliza", "network": "Car express", "operator": "Transdev Sud Ouest ATCRB", "public_transport": "platform", "shelter": "yes", "tactile_paving": "yes", "wheelchair": "yes"}}, {"type": "node", "id": 848687312, "lat": 43.235192, "lon": -1.3047574, "tags": {"name": "Ossès-St Martin d'Arrossa", "name:eu": "Ortzaize-Arrosa", "operator": "SNCF Gares & Connexions", "operator:wikidata": "Q3098278", "public_transport": "stop_position", "railway": "stop", "railway:position:exact": "238.428", "source": "SNCF - 06/2013", "train": "yes", "uic_ref": "8767370"}}, {"type": "node", "id": 849377111, "lat": 43.4910839, "lon": -1.5289937, "tags": {"bus": "yes", "name": "Grand Champ", "public_transport": "stop_position"}}, {"type": "node", "id": 850751302, "lat": 43.4623461, "lon": -1.4060743, "tags": {"bus": "yes", "name": "Mendilaskor", "network": "Txik Txak", "public_transport": "stop_position"}}, {"type": "node", "id": 906548346, "lat": 43.4048112, "lon": -1.4489842, "tags": {"name": "Ustaritz", "name:eu": "Uztaritze", "operator": "SNCF Gares & Connexions", "operator:wikidata": "Q3098278", "public_transport": "stop_position", "railway": "stop", "railway:position:exact": "209.935", "source": "SNCF - 06/2013", "train": "yes", "uic_ref": "8767362", "website": "http://www.ter-sncf.com/Region/aquitaine/gare/Ustaritz.aspx"}}, {"type": "node", "id": 926804998, "lat": 43.4313523, "lon": -1.456442, "tags": {"name": "Villefranque", "name:eu": "Milafranga", "operator": "SNCF Gares & Connexions", "operator:wikidata": "Q3098278", "public_transport": "stop_position", "railway": "stop", "railway:position:exact": "206.882", "source": "SNCF - 06/2013", "train": "yes", "uic_ref": "8767361"}}, {"type": "node", "id": 939945732, "lat": 43.3334778, "lon": -1.4128375, "tags": {"bus": "yes", "name": "Pilota Plaza", "public_transport": "stop_position"}}, {"type": "node", "id": 955278918, "lat": 43.2688951, "lon": -1.5713005, "tags": {"bus": "yes", "public_transport": "stop_position"}}, {"type": "node", "id": 964060301, "lat": 43.3493003, "lon": -1.7865003, "tags": {"alt_name": "Irún-Puente Internacional", "name": "Irun Ficoba", "name:es": "Irún-Ficoba", "name:eu": "Irun Ficoba", "name:fr": "Irun Ficoba", "network": "Euskotren Trena", "operator": "Eusko Trenbideak", "public_transport": "stop_position", "railway": "stop", "train": "yes", "wikidata": "Q12259772", "wikipedia": "eu:Ficobako geltokia"}}, {"type": "node", "id": 1030005701, "lat": 43.4552852, "lon": -1.3830595, "tags": {"bus": "yes", "name": "Espérence", "public_transport": "stop_position"}}, {"type": "node", "id": 1071028816, "lat": 43.228903, "lon": -0.8733381, "tags": {"bench": "no", "bus": "yes", "highway": "bus_stop", "name": "Chéraute - Rond-Point Lycée", "public_transport": "platform", "shelter": "no", "tactile_paving": "no"}}, {"type": "node", "id": 1071029004, "lat": 43.2234689, "lon": -0.8848764, "tags": {"bench": "no", "bin": "no", "bus": "yes", "highway": "bus_stop", "lit": "no", "name": "Mauléon-Licharre Lycée-Collège Saint-François", "public_transport": "platform", "shelter": "no", "tactile_paving": "no"}}, {"type": "node", "id": 1083641996, "lat": 43.3437954, "lon": -1.7661113, "tags": {"bus": "yes", "highway": "bus_stop", "name": "Denentzat", "network": "Txik Txak", "network:wikidata": "Q86667794", "operator": "Agglomération Sud Pays Basque", "operator:eu": "Hego Lapurdiko Hirigunea", "public_transport": "platform", "ref": "Ligne Verte / Linea Berdea"}}, {"type": "node", "id": 1218311168, "lat": 43.5020111, "lon": -1.5174153, "tags": {"bus": "yes", "highway": "bus_stop", "name": "Pignada", "public_transport": "platform"}}, {"type": "node", "id": 1221338378, "lat": 43.11209, "lon": -0.8604771, "tags": {"bus": "yes", "public_transport": "stop_position"}}, {"type": "node", "id": 1256839388, "lat": 43.225326, "lon": -0.8886848, "tags": {"bench": "yes", "bin": "yes", "bus": "yes", "highway": "bus_stop", "lit": "no", "name": "Gare", "public_transport": "platform", "shelter": "yes", "tactile_paving": "no", "wheelchair": "no"}}, {"type": "node", "id": 1310285937, "lat": 43.4583764, "lon": -1.4491184, "tags": {"bus": "yes", "public_transport": "stop_position"}}, {"type": "node", "id": 1313541311, "lat": 43.3893041, "lon": -1.2719464, "tags": {"bus": "yes", "name": "Lauak", "network": "Txik Txak", "public_transport": "stop_position"}}, {"type": "node", "id": 1361442969, "lat": 43.4819939, "lon": -1.5595363, "tags": {"bench": "yes", "bin": "yes", "bus": "yes", "highway": "bus_stop", "lit": "yes", "name": "Centre", "public_transport": "platform", "shelter": "no", "tactile_paving": "no"}}, {"type": "node", "id": 1361518407, "lat": 43.4834234, "lon": -1.5577341, "tags": {"bench": "yes", "bin": "yes", "bus": "yes", "highway": "bus_stop", "lit": "yes", "name": "Mairie de Biarritz - Louis Barthou", "public_transport": "platform", "shelter": "yes", "tactile_paving": "no"}}, {"type": "node", "id": 1362931049, "lat": 43.4724649, "lon": -1.5396978, "tags": {"bench": "yes", "bin": "yes", "bus": "yes", "highway": "bus_stop", "name": "Ranquine", "public_transport": "platform", "shelter": "yes"}}, {"type": "node", "id": 1363045791, "lat": 43.4851644, "lon": -1.5492525, "tags": {"bus": "yes", "highway": "bus_stop", "name": "Thermes", "public_transport": "platform", "shelter": "no", "tactile_paving": "no"}}, {"type": "node", "id": 1363301488, "lat": 43.4912194, "lon": -1.5520053, "tags": {"bench": "no", "bin": "no", "bus": "yes", "highway": "bus_stop", "lit": "no", "name": "Régina", "public_transport": "platform", "shelter": "no", "tactile_paving": "no"}}, {"type": "node", "id": 1363396197, "lat": 43.4806961, "lon": -1.530645, "tags": {"bench": "yes", "bin": "no", "bus": "yes", "covered": "yes", "highway": "bus_stop", "lit": "yes", "name": "Chassin", "public_transport": "platform", "shelter": "yes", "tactile_paving": "no"}}, {"type": "node", "id": 1363439389, "lat": 43.4804441, "lon": -1.5166184, "tags": {"bus": "yes", "highway": "bus_stop", "public_transport": "platform"}}, {"type": "node", "id": 1363439403, "lat": 43.4803507, "lon": -1.5164092, "tags": {"bench": "yes", "bin": "yes", "bus": "yes", "highway": "bus_stop", "lit": "yes", "name": "Anglet Saint-Jean", "public_transport": "platform", "shelter": "yes", "tactile_paving": "no"}}, {"type": "node", "id": 1363444014, "lat": 43.4758168, "lon": -1.5112488, "tags": {"bench": "yes", "bin": "yes", "bus": "yes", "highway": "bus_stop", "name": "Cantau", "passenger_information_display": "yes", "public_transport": "platform", "shelter": "yes", "tactile_paving": "yes"}}, {"type": "node", "id": 1363446687, "lat": 43.4796651, "lon": -1.5066762, "tags": {"bench": "yes", "bin": "yes", "bus": "yes", "highway": "bus_stop", "lit": "yes", "name": "Galois Montaury", "public_transport": "platform", "shelter": "yes", "tactile_paving": "yes"}}, {"type": "node", "id": 1363450214, "lat": 43.4815397, "lon": -1.5100608, "tags": {"bus": "yes", "name": "Bernain-Montòri", "name:oc": "Bernain-Montòri", "public_transport": "stop_position", "source:name:oc": "Lo Congrès"}}, {"type": "node", "id": 1363475176, "lat": 43.484198, "lon": -1.4990294, "tags": {"bench": "yes", "bin": "yes", "bus": "yes", "highway": "bus_stop", "lit": "yes", "name": "Beyris", "public_transport": "platform", "shelter": "yes", "tactile_paving": "no"}}, {"type": "node", "id": 1363475177, "lat": 43.4838749, "lon": -1.4995927, "tags": {"bench": "yes", "bin": "yes", "bus": "yes", "highway": "bus_stop", "lit": "no", "name": "Beyris", "public_transport": "platform", "shelter": "yes", "tactile_paving": "no"}}, {"type": "node", "id": 1363480094, "lat": 43.4789664, "lon": -1.4989035, "tags": {"bench": "yes", "bus": "yes", "highway": "bus_stop", "name": "Polo Beyris", "network": "Chronoplus", "network:wikidata": "Q2409899", "operator": "Keolis Côte Basque-Adour", "public_transport": "platform", "shelter": "yes"}}, {"type": "node", "id": 1403516866, "lat": 43.4633799, "lon": -1.5518162, "tags": {"bus": "yes", "name": "Francis Jammes (?)", "public_transport": "stop_position"}}, {"type": "node", "id": 1412623214, "lat": 43.1769369, "lon": -1.3014963, "tags": {"bus": "yes", "name": "Entrée du Village", "public_transport": "stop_position"}}, {"type": "node", "id": 1416732896, "lat": 43.52452, "lon": -0.9108555, "tags": {"local_ref": "B", "name": "Puyoô", "operator": "SNCF Gares & Connexions", "operator:wikidata": "Q3098278", "public_transport": "stop_position", "railway": "stop", "railway:position:exact": "270.225", "train": "yes", "uic_ref": "8767227", "wikidata": "Q1846734", "wikipedia": "fr:Gare de Puyoô"}}, {"type": "node", "id": 1423119036, "lat": 43.4761396, "lon": -1.5473342, "tags": {"bus": "yes", "name": "Kléber", "public_transport": "stop_position"}}, {"type": "node", "id": 1429973260, "lat": 43.5212226, "lon": -0.889178, "tags": {"highway": "bus_stop", "public_transport": "platform"}}, {"type": "node", "id": 1429973264, "lat": 43.5229011, "lon": -0.8981002, "tags": {"bus": "yes", "name": "Ramous - Mairie", "public_transport": "stop_position"}}, {"type": "node", "id": 1538314459, "lat": 43.3617482, "lon": -1.7898922, "tags": {"bench": "no", "bin": "no", "bus": "yes", "highway": "bus_stop", "lit": "no", "name": "Sabin Arana kalea 3", "public_transport": "platform", "shelter": "no", "tactile_paving": "no"}}, {"type": "node", "id": 1538314461, "lat": 43.3619073, "lon": -1.790082, "tags": {"bus": "yes", "check_date:shelter": "2023-12-06", "highway": "bus_stop", "name": "Sabin Arana kalea", "public_transport": "platform", "shelter": "yes"}}, {"type": "node", "id": 1540682561, "lat": 43.5234416, "lon": -1.490616, "tags": {"name": "Boucau", "operator": "SNCF Gares & Connexions", "operator:wikidata": "Q3098278", "public_transport": "stop_position", "railway": "stop", "railway:position:exact": "193.787", "train": "yes", "uic_ref": "8767309"}}, {"type": "node", "id": 1543052445, "lat": 43.3395022, "lon": -1.7839487, "tags": {"bench": "yes", "bin": "yes", "bus": "yes", "highway": "bus_stop", "lit": "yes", "name": "Nafarroa 21", "name:es": "Navarra 21", "name:eu": "Nafarroa 21", "public_transport": "platform", "ref": "4067", "shelter": "yes", "tactile_paving": "no"}}, {"type": "node", "id": 1543052449, "lat": 43.3393596, "lon": -1.7839003, "tags": {"bench": "yes", "bin": "yes", "bus": "yes", "highway": "bus_stop", "lit": "yes", "name": "Nafarroa 4", "name:es": "Navarra 4", "name:eu": "Nafarroa 4", "public_transport": "platform", "ref": "4076", "shelter": "yes", "tactile_paving": "no"}}, {"type": "node", "id": 1543053981, "lat": 43.3397247, "lon": -1.7809831, "tags": {"bench": "yes", "bin": "yes", "bus": "yes", "highway": "bus_stop", "lit": "yes", "name": "Dunboa Anbulategia", "name:es": "Ambulatorio Dumboa", "name:eu": "Dunboa Anbulategia", "public_transport": "platform", "ref": "4066", "shelter": "yes", "tactile_paving": "no"}}, {"type": "node", "id": 1543053983, "lat": 43.339521, "lon": -1.781242, "tags": {"bench": "yes", "bin": "yes", "bus": "yes", "highway": "bus_stop", "lit": "yes", "name": "Nafarroa 18", "public_transport": "platform", "ref": "4077", "shelter": "yes", "tactile_paving": "no"}}, {"type": "node", "id": 1544994538, "lat": 43.3384056, "lon": -1.7766026, "tags": {"bench": "yes", "bin": "yes", "bus": "yes", "highway": "bus_stop", "lit": "yes", "name": "César Figuerido", "public_transport": "platform", "ref": "4306", "shelter": "no", "tactile_paving": "no"}}, {"type": "node", "id": 1544998739, "lat": 43.3380155, "lon": -1.7708691, "tags": {"bus": "yes", "highway": "bus_stop", "name": "Hilerria", "name:es": "Cementerio", "name:eu": "Hilerria", "public_transport": "platform", "ref": "12", "shelter": "yes"}}, {"type": "node", "id": 1545017133, "lat": 43.3401748, "lon": -1.7686321, "tags": {"bench": "yes", "bin": "yes", "bus": "yes", "highway": "bus_stop", "lit": "yes", "name": "Harrobieta", "public_transport": "platform", "ref": "13", "shelter": "yes", "tactile_paving": "no"}}, {"type": "node", "id": 1545019941, "lat": 43.3418774, "lon": -1.7620797, "tags": {"bus": "yes", "highway": "bus_stop", "name": "Lastaola", "public_transport": "platform", "ref": "4081"}}, {"type": "node", "id": 1545022537, "lat": 43.3412298, "lon": -1.7726581, "tags": {"bench": "no", "bin": "no", "bus": "yes", "highway": "bus_stop", "lit": "yes", "name": "Portu Plazatxoa", "public_transport": "platform", "ref": "14", "shelter": "no", "tactile_paving": "no"}}, {"type": "node", "id": 1545025997, "lat": 43.3368058, "lon": -1.7814263, "tags": {"bench": "no", "bin": "no", "bus": "yes", "highway": "bus_stop", "lit": "yes", "name": "Arbes", "public_transport": "platform", "ref": "15", "shelter": "no", "tactile_paving": "no"}}, {"type": "node", "id": 1545036423, "lat": 43.3289132, "lon": -1.7770661, "tags": {"highway": "bus_stop", "name": "Meaka", "public_transport": "platform"}}, {"type": "node", "id": 1545670617, "lat": 43.3411259, "lon": -1.7767376, "tags": {"bench": "yes", "bin": "yes", "bus": "yes", "highway": "bus_stop", "lit": "yes", "name": "Azken Portu", "public_transport": "platform", "ref": "4065", "shelter": "yes", "tactile_paving": "no"}}, {"type": "node", "id": 1545670995, "lat": 43.341417, "lon": -1.7712578, "tags": {"bench": "yes", "bin": "yes", "bus": "yes", "highway": "bus_stop", "lit": "yes", "name": "Darío Regoyos 22", "public_transport": "platform", "ref": "4079", "shelter": "yes", "tactile_paving": "no"}}, {"type": "node", "id": 1545670997, "lat": 43.3415797, "lon": -1.7715364, "tags": {"bench": "yes", "bin": "yes", "bus": "yes", "highway": "bus_stop", "lit": "yes", "name": "J.T. Labandibar", "public_transport": "platform", "ref": "4046", "shelter": "yes", "tactile_paving": "no"}}, {"type": "node", "id": 1545672370, "lat": 43.3405627, "lon": -1.7770318, "tags": {"bench": "no", "bin": "no", "bus": "yes", "highway": "bus_stop", "lit": "yes", "name": "Dario Regoyos 4", "public_transport": "platform", "ref": "4078", "shelter": "yes", "tactile_paving": "no"}}, {"type": "node", "id": 1601377116, "lat": 43.1971046, "lon": -1.7248162, "tags": {"name": "Arantza", "public_transport": "stop_position"}}, {"type": "node", "id": 1601836390, "lat": 43.499382, "lon": -1.3005592, "tags": {"local_ref": "2", "name": "Urt", "public_transport": "stop_position", "railway": "stop", "train": "yes"}}, {"type": "node", "id": 1601848860, "lat": 43.4945127, "lon": -1.2912565, "tags": {"bench": "yes", "bus": "yes", "highway": "bus_stop", "name": "Place/Ecole Saint-James", "name:eu": "Ahurtiko plaza", "public_transport": "platform", "shelter": "yes", "tactile_paving": "no"}}, {"type": "node", "id": 1601848861, "lat": 43.4913643, "lon": -1.2988847, "tags": {"bench": "yes", "bus": "yes", "highway": "bus_stop", "name": "Centre de Secours", "public_transport": "platform", "shelter": "yes"}}, {"type": "node", "id": 1601848873, "lat": 43.4887208, "lon": -1.2897277, "tags": {"bench": "yes", "bus": "yes", "highway": "bus_stop", "name": "Les Coteaux", "public_transport": "platform", "shelter": "yes"}}, {"type": "node", "id": 1601848877, "lat": 43.4838856, "lon": -1.2865639, "tags": {"bus": "yes", "departures_board": "no", "highway": "bus_stop", "name": "Urt Arremonteguy", "public_transport": "platform"}}, {"type": "node", "id": 1602186198, "lat": 43.5052848, "lon": -1.4722824, "tags": {"bench": "no", "bin": "no", "bus": "yes", "highway": "bus_stop", "lit": "no", "name": "Le Bridon", "public_transport": "platform", "shelter": "no", "tactile_paving": "no"}}, {"type": "node", "id": 1602186199, "lat": 43.5017101, "lon": -1.4673256, "tags": {"bench": "yes", "bin": "no", "bus": "yes", "covered": "yes", "highway": "bus_stop", "lit": "yes", "name": "Citadelle", "passenger_information_display": "yes", "public_transport": "platform", "shelter": "yes", "tactile_paving": "no"}}, {"type": "node", "id": 1602188364, "lat": 43.5214531, "lon": -1.4853287, "tags": {"bus": "yes", "highway": "bus_stop", "name": "Pont Neuf", "public_transport": "platform"}}, {"type": "node", "id": 1602188368, "lat": 43.5193614, "lon": -1.4848606, "tags": {"bench": "no", "bus": "yes", "highway": "bus_stop", "name": "Bois Guilhou", "public_transport": "platform", "shelter": "no"}}, {"type": "node", "id": 1602188373, "lat": 43.5169656, "lon": -1.4849177, "tags": {"bus": "yes", "highway": "bus_stop", "name": "Mousserolles", "public_transport": "platform"}}, {"type": "node", "id": 1602188374, "lat": 43.5147178, "lon": -1.4857596, "tags": {"bus": "yes", "highway": "bus_stop", "name": "Georges Politzer", "operator": "Chronoplus", "public_transport": "platform"}}, {"type": "node", "id": 1602188384, "lat": 43.5083196, "lon": -1.4859295, "tags": {"bench": "no", "bin": "no", "bus": "yes", "highway": "bus_stop", "lit": "no", "name": "Camille Delvaille", "public_transport": "platform", "shelter": "no", "tactile_paving": "yes"}}, {"type": "node", "id": 1602191476, "lat": 43.5282171, "lon": -1.4918116, "tags": {"bus": "yes", "highway": "bus_stop", "name": "Bar Jean", "public_transport": "platform"}}, {"type": "node", "id": 1602191477, "lat": 43.5236801, "lon": -1.4903391, "tags": {"bus": "yes", "highway": "bus_stop", "name": "Boucau Gare", "public_transport": "platform"}}, {"type": "node", "id": 1602191481, "lat": 43.5238349, "lon": -1.4903774, "tags": {"bus": "yes", "highway": "bus_stop", "name": "Gare de Boucau", "public_transport": "platform", "shelter": "yes"}}, {"type": "node", "id": 1602191482, "lat": 43.5227469, "lon": -1.4869042, "tags": {"bus": "yes", "highway": "bus_stop", "name": "Apollo", "public_transport": "platform"}}, {"type": "node", "id": 1602191483, "lat": 43.5266584, "lon": -1.4903467, "tags": {"bench": "no", "bus": "yes", "highway": "bus_stop", "name": "Barthassot", "network": "Txik Txak", "operator": "Chronoplus", "public_transport": "platform", "shelter": "no"}}, {"type": "node", "id": 1602191484, "lat": 43.5241662, "lon": -1.4856439, "tags": {"bench": "no", "bin": "no", "bus": "yes", "highway": "bus_stop", "lit": "no", "name": "Mairie de Boucau", "public_transport": "platform", "shelter": "no", "tactile_paving": "no"}}, {"type": "node", "id": 1602201863, "lat": 43.5439263, "lon": -1.4852496, "tags": {"bench": "no", "bus": "yes", "highway": "bus_stop", "name": "Léo Lagrange", "network": "Txik Txak", "public_transport": "platform", "shelter": "no", "tactile_paving": "no"}}, {"type": "node", "id": 1602201864, "lat": 43.5416273, "lon": -1.4838789, "tags": {"bench": "no", "bin": "no", "bus": "yes", "highway": "bus_stop", "lit": "yes", "name": "Square Mora", "operator": "Chronoplus", "public_transport": "platform", "shelter": "no", "tactile_paving": "no"}}, {"type": "node", "id": 1602201865, "lat": 43.539158, "lon": -1.4798396, "tags": {"bench": "no", "bin": "no", "bus": "yes", "highway": "bus_stop", "name": "Rond-Point", "public_transport": "platform", "shelter": "no", "tactile_paving": "no"}}, {"type": "node", "id": 1602201866, "lat": 43.5371962, "lon": -1.4773988, "tags": {"bench": "yes", "bin": "no", "covered": "yes", "highway": "bus_stop", "lit": "yes", "name": "Chic à Chic", "public_transport": "platform", "shelter": "yes", "tactile_paving": "no"}}, {"type": "node", "id": 1602201868, "lat": 43.5335307, "lon": -1.4776832, "tags": {"bench": "no", "bin": "no", "bus": "yes", "check_date:shelter": "2023-02-15", "highway": "bus_stop", "name": "Louis Aragon", "network": "Chronoplus", "public_transport": "platform", "shelter": "no", "tactile_paving": "yes"}}, {"type": "node", "id": 1602201869, "lat": 43.5315487, "lon": -1.4806432, "tags": {"bench": "yes", "bin": "yes", "bus": "yes", "highway": "bus_stop", "name": "Montespan", "public_transport": "platform", "shelter": "no"}}, {"type": "node", "id": 1602201871, "lat": 43.5347676, "lon": -1.4782382, "tags": {"bench": "no", "bin": "no", "highway": "bus_stop", "lit": "no", "name": "Canditte", "public_transport": "platform", "shelter": "no", "tactile_paving": "yes"}}, {"type": "node", "id": 1602201872, "lat": 43.528805, "lon": -1.4823528, "tags": {"bench": "no", "bin": "no", "bus": "yes", "highway": "bus_stop", "lit": "no", "name": "Séverin Latappy", "operator": "Chronoplus", "public_transport": "platform", "shelter": "no", "tactile_paving": "no"}}, {"type": "node", "id": 1602201875, "lat": 43.5388998, "lon": -1.4776222, "tags": {"bench": "no", "bin": "no", "highway": "bus_stop", "lit": "no", "name": "Pichepaou", "passenger_information_display": "yes", "public_transport": "platform", "shelter": "no", "tactile_paving": "no"}}, {"type": "node", "id": 1602201876, "lat": 43.5470969, "lon": -1.4878106, "tags": {"bench": "no", "bus": "yes", "highway": "bus_stop", "name": "Julián Grimau", "network": "Txik Txak", "public_transport": "platform", "shelter": "no", "tactile_paving": "no"}}, {"type": "node", "id": 1602212544, "lat": 43.4815352, "lon": -1.4832419, "tags": {"bench": "no", "bin": "yes", "bus": "yes", "highway": "bus_stop", "name": "Jacques Loeb", "public_transport": "platform", "shelter": "no"}}, {"type": "node", "id": 1602212545, "lat": 43.4871862, "lon": -1.4760368, "tags": {"bench": "yes", "bin": "yes", "bus": "yes", "highway": "bus_stop", "lit": "yes", "name": "Aviron Bayonnais", "note": "Le nom de l'arrêt a changé pour Aviron Bayonnais mais au 11/05/23 c'est toujours l'ancien nom qui est indiqué à l'intérieur des bus (par contre c'est le nouveau nom sur les arrêts)", "old_name": "Pont du Génie", "public_transport": "platform", "shelter": "yes", "tactile_paving": "yes"}}, {"type": "node", "id": 1602212546, "lat": 43.480484, "lon": -1.4888916, "tags": {"bus": "yes", "name": "Cité des Arts", "public_transport": "stop_position"}}, {"type": "node", "id": 1602212556, "lat": 43.4893262, "lon": -1.4720504, "tags": {"bench": "yes", "bin": "yes", "bus": "yes", "highway": "bus_stop", "lit": "yes", "name": "Place Saint-André", "public_transport": "platform", "shelter": "yes", "tactile_paving": "yes"}}, {"type": "node", "id": 1602212558, "lat": 43.4785697, "lon": -1.4911949, "tags": {"bus": "yes", "name": "Université des Métiers", "public_transport": "stop_position"}}, {"type": "node", "id": 1602212560, "lat": 43.4809775, "lon": -1.4809169, "tags": {"bench": "yes", "bin": "yes", "bus": "yes", "highway": "bus_stop", "lit": "yes", "name": "René Cassin", "public_transport": "platform", "shelter": "yes", "tactile_paving": "no"}}, {"type": "node", "id": 1602212570, "lat": 43.4895931, "lon": -1.4717712, "tags": {"bench": "yes", "bin": "yes", "bus": "yes", "highway": "bus_stop", "lit": "no", "name": "Place Saint-André", "public_transport": "platform", "shelter": "yes", "tactile_paving": "no"}}, {"type": "node", "id": 1602212571, "lat": 43.4846293, "lon": -1.4763758, "tags": {"bench": "yes", "bin": "yes", "bus": "yes", "highway": "bus_stop", "lit": "no", "name": "Lauga", "public_transport": "platform", "shelter": "yes", "tactile_paving": "yes"}}, {"type": "node", "id": 1602212572, "lat": 43.4837158, "lon": -1.4768342, "tags": {"bench": "yes", "bin": "yes", "bus": "yes", "highway": "bus_stop", "name": "Lauga", "public_transport": "platform", "shelter": "yes", "tactile_paving": "yes"}}, {"type": "node", "id": 1602212580, "lat": 43.4882808, "lon": -1.4726633, "tags": {"bench": "no", "bin": "no", "bus": "yes", "highway": "bus_stop", "lit": "no", "name": "Arsenal", "public_transport": "platform", "shelter": "no", "tactile_paving": "no"}}, {"type": "node", "id": 1602212582, "lat": 43.4927792, "lon": -1.4718493, "tags": {"bench": "yes", "bin": "yes", "bus": "yes", "covered": "yes", "highway": "bus_stop", "lit": "yes", "name": "Réduit Boufflers", "public_transport": "platform", "shelter": "yes", "tactile_paving": "no"}}, {"type": "node", "id": 1602220120, "lat": 43.4784946, "lon": -1.5046296, "tags": {"bench": "yes", "bin": "yes", "bus": "yes", "highway": "bus_stop", "lit": "yes", "name": "Muses", "public_transport": "platform", "shelter": "yes", "tactile_paving": "no"}}, {"type": "node", "id": 1602220122, "lat": 43.4837375, "lon": -1.5112587, "tags": {"bus": "yes", "public_transport": "stop_position"}}, {"type": "node", "id": 1602220123, "lat": 43.4740429, "lon": -1.5002128, "tags": {"bus": "yes", "name": "Artémis", "public_transport": "stop_position"}}, {"type": "node", "id": 1602220124, "lat": 43.4844106, "lon": -1.518631, "tags": {"bus": "yes", "highway": "bus_stop", "name": "Louillot", "public_transport": "platform"}}, {"type": "node", "id": 1602220125, "lat": 43.4742121, "lon": -1.4946842, "tags": {"bus": "yes", "highway": "bus_stop", "name": "Aritxague", "public_transport": "platform"}}, {"type": "node", "id": 1602220126, "lat": 43.4825952, "lon": -1.5137923, "tags": {"bench": "yes", "bin": "no", "bus": "yes", "highway": "bus_stop", "lit": "yes", "name": "Maison Pour Tous", "public_transport": "platform", "shelter": "no", "tactile_paving": "yes"}}, {"type": "node", "id": 1602220127, "lat": 43.4730032, "lon": -1.4987723, "tags": {"bus": "yes", "highway": "bus_stop", "name": "Plaisance", "public_transport": "platform", "shelter": "no"}}, {"type": "node", "id": 1602220128, "lat": 43.476086, "lon": -1.4930722, "tags": {"bench": "yes", "bin": "yes", "bus": "yes", "highway": "bus_stop", "lit": "no", "name": "René Cuzacq", "public_transport": "platform", "shelter": "no", "tactile_paving": "no"}}, {"type": "node", "id": 1602222815, "lat": 43.4926222, "lon": -1.5274917, "tags": {"bus": "yes", "highway": "bus_stop", "name": "Pâquerettes", "public_transport": "platform"}}, {"type": "node", "id": 1602222816, "lat": 43.4947219, "lon": -1.528343, "tags": {"bus": "yes", "name": "Cinq Cantons", "public_transport": "stop_position"}}, {"type": "node", "id": 1602222818, "lat": 43.4907597, "lon": -1.5250803, "tags": {"bus": "yes", "name": "Mégnin", "public_transport": "stop_position"}}, {"type": "node", "id": 1602222819, "lat": 43.4875729, "lon": -1.5247867, "tags": {"highway": "bus_stop", "name": "Hirigogne", "public_transport": "platform"}}, {"type": "node", "id": 1602222821, "lat": 43.5020867, "lon": -1.533128, "tags": {"bench": "no", "bin": "no", "bus": "yes", "highway": "bus_stop", "lit": "no", "name": "Fontaine Laborde", "public_transport": "platform", "shelter": "no", "tactile_paving": "no"}}, {"type": "node", "id": 1602222822, "lat": 43.5012674, "lon": -1.5381337, "tags": {"bench": "no", "bin": "no", "bus": "yes", "highway": "bus_stop", "lit": "no", "name": "Chambre d'Amour", "public_transport": "platform", "shelter": "no", "tactile_paving": "no"}}, {"type": "node", "id": 1602222823, "lat": 43.5001179, "lon": -1.5277165, "tags": {"bus": "yes", "highway": "bus_stop", "name": "Stella Maris", "public_transport": "platform"}}, {"type": "node", "id": 1602222824, "lat": 43.4954077, "lon": -1.5287956, "tags": {"bus": "yes", "highway": "bus_stop", "name": "Place Leclerc", "public_transport": "platform", "shelter": "no"}}, {"type": "node", "id": 1602222825, "lat": 43.5029649, "lon": -1.5366622, "tags": {"bench": "yes", "bin": "yes", "bus": "yes", "highway": "bus_stop", "lit": "yes", "name": "Marinella", "public_transport": "platform", "shelter": "yes", "tactile_paving": "yes"}}, {"type": "node", "id": 1602222826, "lat": 43.5006809, "lon": -1.5329089, "tags": {"bench": "no", "bin": "no", "bus": "yes", "highway": "bus_stop", "lit": "no", "name": "Sables", "public_transport": "platform", "shelter": "no", "tactile_paving": "no"}}, {"type": "node", "id": 1602222827, "lat": 43.5011958, "lon": -1.5281079, "tags": {"bench": "no", "bin": "no", "bus": "yes", "highway": "bus_stop", "lit": "yes", "name": "Les Pins", "public_transport": "platform", "shelter": "no", "tactile_paving": "no"}}, {"type": "node", "id": 1659079957, "lat": 43.319482, "lon": -1.0498076, "tags": {"bus": "yes", "public_transport": "stop_position"}}, {"type": "node", "id": 1672869439, "lat": 43.131752, "lon": -1.6447674, "tags": {"bench": "yes", "bin": "no", "bus": "yes", "highway": "bus_stop", "lit": "yes", "name": "Legasa", "public_transport": "platform", "shelter": "yes", "tactile_paving": "no"}}, {"type": "node", "id": 1676716292, "lat": 43.523125, "lon": -1.5038758, "tags": {"bench": "yes", "bin": "yes", "bus": "yes", "highway": "bus_stop", "lit": "yes", "name": "Noroit", "public_transport": "platform", "shelter": "no", "tactile_paving": "no"}}, {"type": "node", "id": 1676716297, "lat": 43.5238526, "lon": -1.5041821, "tags": {"bench": "yes", "bin": "yes", "bus": "yes", "highway": "bus_stop", "lit": "yes", "name": "Noroit", "public_transport": "platform", "shelter": "no", "tactile_paving": "no"}}, {"type": "node", "id": 1676716303, "lat": 43.5246451, "lon": -1.5069703, "tags": {"bench": "no", "bus": "yes", "highway": "bus_stop", "name": "Port de laisance", "public_transport": "platform", "shelter": "no"}}, {"type": "node", "id": 1680022036, "lat": 43.4775956, "lon": -1.4186982, "tags": {"bus": "yes", "public_transport": "stop_position"}}, {"type": "node", "id": 1691356963, "lat": 43.4835094, "lon": -1.5464482, "tags": {"bus": "yes", "name": "Aillet", "public_transport": "stop_position"}}, {"type": "node", "id": 1691357053, "lat": 43.4855737, "lon": -1.5396853, "tags": {"bus": "yes", "public_transport": "stop_position"}}, {"type": "node", "id": 1691357058, "lat": 43.4858012, "lon": -1.4912743, "tags": {"bus": "yes", "name": "Marouette", "public_transport": "stop_position"}}, {"type": "node", "id": 1691653246, "lat": 43.4731129, "lon": -1.5662853, "tags": {"bus": "yes", "public_transport": "stop_position"}}, {"type": "node", "id": 1707008457, "lat": 43.3701509, "lon": -1.7799491, "tags": {"bus": "yes", "public_transport": "stop_position"}}, {"type": "node", "id": 1707280713, "lat": 43.3552963, "lon": -1.7742002, "tags": {"bench": "no", "bus": "yes", "highway": "bus_stop", "name": "Cinéma", "name:eu": "Zinegela", "network": "URIBIL", "operator": "Agglomération Sud Pays Basque", "public_transport": "platform", "ref": "Ligne Verte / Linea Berdea;Ligne Bleue / Linea Urdiña", "shelter": "no"}}, {"type": "node", "id": 1708117100, "lat": 43.3889522, "lon": -1.6811007, "tags": {"bench": "yes", "bus": "yes", "departures_board": "no", "highway": "bus_stop", "name": "Cimetière Marin", "name:eu": "Itsas Hilerria", "network": "HegoBus", "operator": "Transdev", "public_transport": "platform", "shelter": "no"}}, {"type": "node", "id": 1709770193, "lat": 43.5374499, "lon": -1.4610205, "tags": {"bench": "yes", "bin": "yes", "bus": "yes", "covered": "yes", "highway": "bus_stop", "lit": "yes", "name": "Clair de Lune", "public_transport": "platform", "shelter": "yes", "tactile_paving": "no"}}, {"type": "node", "id": 1709770194, "lat": 43.5374547, "lon": -1.4608704, "tags": {"bench": "yes", "bin": "yes", "bus": "yes", "covered": "yes", "highway": "bus_stop", "lit": "yes", "name": "Clair de Lune", "public_transport": "platform", "shelter": "yes", "tactile_paving": "no"}}, {"type": "node", "id": 1709771224, "lat": 43.5405997, "lon": -1.4609877, "tags": {"bench": "yes", "bin": "yes", "bus": "yes", "covered": "yes", "highway": "bus_stop", "lit": "yes", "name": "Mairie de Tarnos", "public_transport": "platform", "shelter": "yes", "tactile_paving": "no"}}, {"type": "node", "id": 1709771233, "lat": 43.540573, "lon": -1.4608489, "tags": {"bench": "yes", "bin": "yes", "bus": "yes", "covered": "yes", "highway": "bus_stop", "lit": "yes", "name": "Mairie de Tarnos", "public_transport": "platform", "shelter": "yes", "tactile_paving": "no"}}, {"type": "node", "id": 1709913911, "lat": 43.5418099, "lon": -1.4751021, "tags": {"bench": "no", "bus": "yes", "highway": "bus_stop", "name": "Barrat", "network": "Txik Txak", "public_transport": "platform", "shelter": "no"}}, {"type": "node", "id": 1710090534, "lat": 43.5276311, "lon": -1.4922401, "tags": {"bench": "yes", "bus": "yes", "highway": "bus_stop", "name": "Bar Jean", "network": "Txik Txak", "operator": "Chronoplus", "public_transport": "platform", "shelter": "yes"}}, {"type": "node", "id": 1712504252, "lat": 43.5466674, "lon": -1.4876576, "tags": {"bench": "yes", "bin": "yes", "bus": "yes", "highway": "bus_stop", "lit": "no", "name": "Julián Grimau", "public_transport": "platform", "shelter": "no", "tactile_paving": "no"}}, {"type": "node", "id": 1712507927, "lat": 43.541037, "lon": -1.4843826, "tags": {"bench": "no", "bin": "no", "bus": "yes", "highway": "bus_stop", "public_transport": "platform", "shelter": "no", "tactile_paving": "no"}}, {"type": "node", "id": 1712507933, "lat": 43.5422385, "lon": -1.483932, "tags": {"bus": "yes", "highway": "bus_stop", "public_transport": "platform"}}, {"type": "node", "id": 1712507936, "lat": 43.5411673, "lon": -1.4841291, "tags": {"bench": "no", "bin": "no", "bus": "yes", "highway": "bus_stop", "name": "Square Mora", "network": "Txik Txak", "public_transport": "platform", "shelter": "no", "tactile_paving": "no"}}, {"type": "node", "id": 1712580520, "lat": 43.5415173, "lon": -1.4734365, "tags": {"bench": "no", "bus": "yes", "highway": "bus_stop", "name": "Kobé", "network": "Txik Txak", "public_transport": "platform", "shelter": "no"}}, {"type": "node", "id": 1712580550, "lat": 43.5411808, "lon": -1.4724722, "tags": {"bench": "no", "bus": "yes", "highway": "bus_stop", "name": "Kobé", "network": "Txik Txak", "public_transport": "platform", "shelter": "no"}}, {"type": "node", "id": 1712580603, "lat": 43.5406598, "lon": -1.4698544, "tags": {"bench": "yes", "bus": "yes", "highway": "bus_stop", "name": "Dauphin", "network": "Txik Txak", "public_transport": "platform", "shelter": "yes"}}, {"type": "node", "id": 1712763455, "lat": 43.541027, "lon": -1.4660967, "tags": {"bench": "no", "bus": "yes", "highway": "bus_stop", "name": "La Croix", "network": "Txik Txak", "public_transport": "platform", "shelter": "no"}}, {"type": "node", "id": 1712785400, "lat": 43.5353954, "lon": -1.4903532, "tags": {"bench": "no", "bus": "yes", "highway": "bus_stop", "name": "Ambrose Croizat", "network": "Txik Txak", "public_transport": "platform", "shelter": "no", "tactile_paving": "no"}}, {"type": "node", "id": 1712787250, "lat": 43.5329164, "lon": -1.4935014, "tags": {"bench": "no", "bin": "no", "bus": "yes", "highway": "bus_stop", "lit": "no", "name": "Forges", "public_transport": "platform", "shelter": "no", "tactile_paving": "no"}}, {"type": "node", "id": 1712787254, "lat": 43.5324154, "lon": -1.4924748, "tags": {"bus": "yes", "highway": "bus_stop", "name:signed": "no", "public_transport": "platform", "shelter": "no"}}, {"type": "node", "id": 1712956167, "lat": 43.534433, "lon": -1.452298, "tags": {"bench": "yes", "bin": "yes", "bus": "yes", "highway": "bus_stop", "lit": "no", "name": "Treytin", "network": "Txik Txak", "public_transport": "platform", "shelter": "no", "tactile_paving": "no"}}, {"type": "node", "id": 1712956259, "lat": 43.5344471, "lon": -1.4524709, "tags": {"bench": "no", "bin": "yes", "bus": "yes", "highway": "bus_stop", "lit": "yes", "name": "Treytin", "public_transport": "platform", "shelter": "no", "tactile_paving": "yes"}}, {"type": "node", "id": 1714283566, "lat": 43.5419206, "lon": -1.4583718, "tags": {"bench": "no", "bin": "no", "bus": "yes", "highway": "bus_stop", "name": "Charles Durroty", "network": "Txik Txak", "public_transport": "platform", "shelter": "no"}}, {"type": "node", "id": 1714283608, "lat": 43.541804, "lon": -1.4568121, "tags": {"bench": "no", "bin": "no", "bus": "yes", "highway": "bus_stop", "lit": "no", "name": "La Palibe", "network": "Txik Txak", "public_transport": "platform", "shelter": "no", "tactile_paving": "no"}}, {"type": "node", "id": 1714680260, "lat": 43.5450321, "lon": -1.4604111, "tags": {"bus": "yes", "highway": "bus_stop", "public_transport": "platform"}}, {"type": "node", "id": 1714722474, "lat": 43.5440432, "lon": -1.4622421, "tags": {"bench": "yes", "bin": "yes", "bus": "yes", "highway": "bus_stop", "name:signed": "no", "public_transport": "platform", "shelter": "no"}}, {"type": "node", "id": 1714807961, "lat": 43.5239047, "lon": -1.4635655, "tags": {"bench": "no", "bin": "no", "bus": "yes", "highway": "bus_stop", "lit": "no", "name": "Centre Commercial l'Océan", "public_transport": "platform", "shelter": "no", "tactile_paving": "no"}}, {"type": "node", "id": 1734183774, "lat": 43.4758697, "lon": -1.2031141, "tags": {"bench": "no", "bin": "no", "bus": "yes", "highway": "bus_stop", "lit": "no", "name": "Place", "public_transport": "platform", "shelter": "yes", "source": "Bing;cadastre-dgi-fr source : Direction Générale des Impôts - Cadastre. Mise à jour : 2012", "tactile_paving": "no"}}, {"type": "node", "id": 1734183822, "lat": 43.4786488, "lon": -1.1881884, "tags": {"bench": "yes", "bus": "yes", "highway": "bus_stop", "name": "Bascule", "public_transport": "platform", "shelter": "yes"}}, {"type": "node", "id": 1736098155, "lat": 43.3665053, "lon": -1.3626568, "tags": {"bus": "yes", "highway": "bus_stop", "public_transport": "platform"}}, {"type": "node", "id": 1736098156, "lat": 43.3666281, "lon": -1.3628419, "tags": {"bus": "yes", "highway": "bus_stop", "public_transport": "platform"}}, {"type": "node", "id": 1753707484, "lat": 43.5404821, "lon": -1.3865594, "tags": {"bus": "yes", "highway": "bus_stop", "public_transport": "platform"}}, {"type": "node", "id": 1771482001, "lat": 43.3969994, "lon": -1.4554263, "tags": {"bench": "no", "bus": "yes", "highway": "bus_stop", "name": "Lapurdi", "public_transport": "platform", "shelter": "no"}}, {"type": "node", "id": 1776797397, "lat": 43.1773813, "lon": -1.301283, "tags": {"bench": "yes", "bus": "yes", "highway": "bus_stop", "name": "Entrée du Village", "network": "Txik Txak", "network:wikidata": "Q86667794", "public_transport": "platform", "shelter": "yes", "wheelchair": "no"}}, {"type": "node", "id": 1776797400, "lat": 43.1769411, "lon": -1.3016129, "tags": {"bench": "yes", "bus": "yes", "highway": "bus_stop", "name": "Entrée du Village", "network": "Txik Txak", "network:wikidata": "Q86667794", "public_transport": "platform", "shelter": "yes", "wheelchair": "no"}}, {"type": "node", "id": 1778168139, "lat": 43.3676374, "lon": -1.356496, "tags": {"bench": "yes", "bus": "yes", "highway": "bus_stop", "name": "Urcaray", "network": "Txik Txak", "public_transport": "platform", "shelter": "yes", "wheelchair": "no"}}, {"type": "node", "id": 1786208809, "lat": 43.434827, "lon": -1.4417325, "tags": {"bench": "yes", "bus": "yes", "highway": "bus_stop", "name": "Mendiburua", "public_transport": "platform", "shelter": "yes", "tactile_paving": "yes"}}, {"type": "node", "id": 1786208811, "lat": 43.434679, "lon": -1.4418545, "tags": {"bench": "yes", "bus": "yes", "highway": "bus_stop", "name": "Mendiburua", "network": "Txik Txak", "public_transport": "platform", "shelter": "yes", "tactile_paving": "yes"}}, {"type": "node", "id": 1788271807, "lat": 43.492337, "lon": -1.0370664, "tags": {"bench": "no", "bus": "yes", "highway": "bus_stop", "name": "École", "public_transport": "platform", "shelter": "no"}}, {"type": "node", "id": 1788320407, "lat": 43.4460831, "lon": -1.5448326, "tags": {"bench": "yes", "bus": "yes", "highway": "bus_stop", "name": "Lore Landa", "public_transport": "platform", "shelter": "yes"}}, {"type": "node", "id": 1788320410, "lat": 43.4459516, "lon": -1.545081, "tags": {"bench": "yes", "bus": "yes", "highway": "bus_stop", "name": "Lore Landa", "public_transport": "platform", "shelter": "yes"}}, {"type": "node", "id": 1788323632, "lat": 43.4570261, "lon": -1.5442402, "tags": {"bench": "no", "bin": "no", "bus": "yes", "highway": "bus_stop", "name": "Harritx", "public_transport": "platform", "shelter": "no", "tactile_paving": "no"}}, {"type": "node", "id": 1795426698, "lat": 43.5290461, "lon": -1.4819055, "tags": {"bench": "no", "bin": "no", "bus": "yes", "highway": "bus_stop", "name": "Séverin Latappy", "operator": "Chronoplus", "public_transport": "platform", "shelter": "no", "tactile_paving": "no"}}, {"type": "node", "id": 1801331351, "lat": 43.4992727, "lon": -1.4545726, "tags": {"bench": "yes", "bin": "yes", "bus": "yes", "covered": "yes", "highway": "bus_stop", "name": "Albert Camus", "passenger_information_display": "yes", "public_transport": "platform", "shelter": "yes", "tactile_paving": "yes"}}, {"type": "node", "id": 1801652180, "lat": 43.4635933, "lon": -1.1443491, "tags": {"bench": "yes", "bus": "yes", "highway": "bus_stop", "name": "Le Battan", "public_transport": "platform", "shelter": "yes", "wheelchair": "no"}}, {"type": "node", "id": 1801723596, "lat": 43.2576266, "lon": -1.2276947, "tags": {"bench": "no", "bus": "yes", "highway": "bus_stop", "name": "Salle Aeroski", "network": "Txik Txak", "public_transport": "platform", "shelter": "no", "wheelchair": "no"}}, {"type": "node", "id": 1806226051, "lat": 43.4789542, "lon": -1.4737324, "tags": {"bus": "yes", "name": "La Floride", "public_transport": "stop_position"}}, {"type": "node", "id": 1825553591, "lat": 43.5000756, "lon": -1.5278926, "tags": {"bus": "yes", "highway": "bus_stop", "name": "Stella Maris", "public_transport": "platform"}}, {"type": "node", "id": 1827242765, "lat": 43.3699711, "lon": -1.7643223, "tags": {"name": "Les Deux-Jumeaux", "operator": "SNCF Gares & Connexions", "operator:wikidata": "Q3098278", "public_transport": "stop_position", "railway": "stop", "railway:position:exact": "230.200", "train": "yes", "uic_ref": "8767710"}}, {"type": "node", "id": 1827274508, "lat": 43.3383862, "lon": -1.4473915, "tags": {"bus": "yes", "public_transport": "stop_position"}}, {"type": "node", "id": 1830712343, "lat": 43.4357341, "lon": -1.593321, "tags": {"bench": "no", "bin": "no", "bus": "yes", "departures_board": "timetable", "description": "Lignes 3, 44 et 46", "highway": "bus_stop", "lit": "yes", "mapillary": "1452730085093136", "name": "Carricartenea", "network": "Txik Txak", "network:wikidata": "Q86667794", "operator": "Chronoplus", "public_transport": "platform", "shelter": "no", "tactile_paving": "no"}}, {"type": "node", "id": 1830712348, "lat": 43.4355835, "lon": -1.5936387, "tags": {"bench": "no", "bin": "no", "bus": "yes", "departures_board": "timetable", "description": "Lignes 3, 44 et 46", "highway": "bus_stop", "lit": "yes", "mapillary": "307011250804692", "name": "Carricartenea", "network": "Txik Txak", "network:wikidata": "Q86667794", "operator": "Chronoplus", "public_transport": "platform", "shelter": "no", "tactile_paving": "no"}}, {"type": "node", "id": 1830974476, "lat": 43.5037697, "lon": -1.4837052, "tags": {"bus": "yes", "public_transport": "stop_position"}}, {"type": "node", "id": 1868736890, "lat": 43.1786275, "lon": -1.3408721, "tags": {"bus": "yes", "name": "Fronton", "public_transport": "stop_position"}}, {"type": "node", "id": 1875028711, "lat": 43.5190883, "lon": -1.4187787, "tags": {"bus": "yes", "public_transport": "stop_position"}}, {"type": "node", "id": 1895018796, "lat": 43.4828931, "lon": -1.5573662, "tags": {"bench": "no", "bin": "no", "bus": "yes", "highway": "bus_stop", "lit": "yes", "name:signed": "no", "public_transport": "platform", "shelter": "no", "tactile_paving": "no"}}, {"type": "node", "id": 1895026554, "lat": 43.4815337, "lon": -1.5580394, "tags": {"bus": "yes", "highway": "bus_stop", "public_transport": "platform", "tactile_paving": "yes"}}, {"type": "node", "id": 1895026555, "lat": 43.4818329, "lon": -1.5543923, "tags": {"bench": "no", "bin": "yes", "bus": "yes", "highway": "bus_stop", "lit": "yes", "name": "Frias-Mediathèque", "public_transport": "platform", "shelter": "no", "tactile_paving": "no"}}, {"type": "node", "id": 1895026560, "lat": 43.4819872, "lon": -1.5522706, "tags": {"bench": "no", "bin": "no", "bus": "yes", "highway": "bus_stop", "lit": "no", "name": "Park Larivère", "public_transport": "platform", "shelter": "no", "tactile_paving": "no"}}, {"type": "node", "id": 1895026563, "lat": 43.4795965, "lon": -1.5587461, "tags": {"bench": "yes", "bin": "yes", "bus": "yes", "highway": "bus_stop", "lit": "yes", "name": "Jardin Public", "public_transport": "platform", "shelter": "yes", "tactile_paving": "yes"}}, {"type": "node", "id": 1895026568, "lat": 43.4820714, "lon": -1.5524698, "tags": {"bench": "no", "bin": "no", "bus": "yes", "highway": "bus_stop", "lit": "no", "name": "Park Larivère", "public_transport": "platform", "shelter": "no", "tactile_paving": "no"}}, {"type": "node", "id": 1895026570, "lat": 43.4812993, "lon": -1.5591236, "tags": {"bench": "yes", "bus": "yes", "highway": "bus_stop", "name": "Cinema Royal", "public_transport": "platform", "shelter": "no", "source": "www.chronoplus.eu"}}, {"type": "node", "id": 1895026573, "lat": 43.4790882, "lon": -1.5593255, "tags": {"bench": "no", "bin": "no", "bus": "yes", "highway": "bus_stop", "name": "Jardin Public", "public_transport": "platform", "shelter": "no"}}, {"type": "node", "id": 1895072545, "lat": 43.4834892, "lon": -1.5587219, "tags": {"bench": "yes", "bin": "yes", "bus": "yes", "highway": "bus_stop", "lit": "yes", "name": "Mairie de Biarritz Edouard 7", "note:local_ref": "Line A1, 8,", "public_transport": "platform", "shelter": "yes", "tactile_paving": "no"}}, {"type": "node", "id": 1895073552, "lat": 43.4815715, "lon": -1.558222, "tags": {"bench": "no", "bin": "no", "bus": "yes", "highway": "bus_stop", "lit": "no", "name": "Larralde", "public_transport": "platform", "shelter": "no", "tactile_paving": "no"}}, {"type": "node", "id": 1895083029, "lat": 43.4780544, "lon": -1.5651586, "tags": {"bench": "no", "bin": "no", "bus": "yes", "highway": "bus_stop", "name": "Hélianthe", "public_transport": "platform", "shelter": "no", "tactile_paving": "no"}}, {"type": "node", "id": 1975146320, "lat": 43.4977412, "lon": -0.7765761, "tags": {"bus": "yes", "highway": "bus_stop", "public_transport": "platform"}}, {"type": "node", "id": 1988126310, "lat": 43.346966, "lon": -0.7698479, "tags": {"highway": "bus_stop", "public_transport": "platform"}}, {"type": "node", "id": 2038929405, "lat": 43.4583626, "lon": -1.3591052, "tags": {"bench": "yes", "bus": "yes", "highway": "bus_stop", "name": "Les Salines", "operator": "CG64", "public_transport": "platform", "shelter": "yes"}}, {"type": "node", "id": 2038959209, "lat": 43.458855, "lon": -1.353699, "tags": {"bench": "no", "bus": "yes", "highway": "bus_stop", "name": "Imistola", "operator": "CG64", "public_transport": "platform", "shelter": "no"}}, {"type": "node", "id": 2038959226, "lat": 43.4608326, "lon": -1.3331017, "tags": {"bench": "yes", "bus": "yes", "highway": "bus_stop", "name": "Bourg", "operator": "CG64", "public_transport": "platform", "shelter": "yes"}}, {"type": "node", "id": 2038959305, "lat": 43.4588369, "lon": -1.334047, "tags": {"bench": "yes", "bus": "yes", "highway": "bus_stop", "operator": "CG64", "public_transport": "platform", "shelter": "yes"}}, {"type": "node", "id": 2090657934, "lat": 43.4767454, "lon": -1.4324203, "tags": {"bench": "yes", "bus": "yes", "highway": "bus_stop", "name": "Borda", "public_transport": "platform", "shelter": "yes"}}, {"type": "node", "id": 2102471217, "lat": 43.0081526, "lon": -1.3194418, "tags": {"bench": "no", "bus": "yes", "highway": "bus_stop", "name": "Orreaga / Roncesvalles", "public_transport": "platform", "shelter": "no", "tactile_paving": "no"}}, {"type": "node", "id": 2103478416, "lat": 43.1848136, "lon": -1.5069262, "tags": {"highway": "bus_stop", "public_transport": "platform"}}, {"type": "node", "id": 2105506342, "lat": 42.9941025, "lon": -1.6743906, "tags": {"highway": "bus_stop", "local_ref": "Para de bus/ Autobus geltokia", "public_transport": "platform"}}, {"type": "node", "id": 2125037611, "lat": 43.5472324, "lon": -1.4895042, "tags": {"bench": "no", "bus": "yes", "highway": "bus_stop", "name": "Érables", "operator": "Txik Txak", "public_transport": "platform", "shelter": "no"}}, {"type": "node", "id": 2133119337, "lat": 43.4740201, "lon": -1.4853889, "tags": {"bus": "yes", "covered": "yes", "highway": "bus_stop", "name": "Panorama", "public_transport": "platform", "shelter": "yes"}}, {"type": "node", "id": 2134121718, "lat": 43.4732588, "lon": -1.3960778, "tags": {"bench": "yes", "bus": "yes", "highway": "bus_stop", "name": "Doria", "public_transport": "platform", "shelter": "yes"}}, {"type": "node", "id": 2134121724, "lat": 43.4873969, "lon": -1.3563352, "tags": {"bench": "yes", "bus": "yes", "highway": "bus_stop", "name": "Château d'Eau", "public_transport": "platform", "shelter": "yes"}}, {"type": "node", "id": 2134121731, "lat": 43.4863161, "lon": -1.3873496, "tags": {"bench": "yes", "bus": "yes", "highway": "bus_stop", "name": "Bourg - Abbaye", "public_transport": "platform", "shelter": "no"}}, {"type": "node", "id": 2134121737, "lat": 43.4775723, "lon": -1.4188137, "tags": {"bench": "yes", "bus": "yes", "highway": "bus_stop", "name": "Cigaro", "public_transport": "platform", "shelter": "yes"}}, {"type": "node", "id": 2134121744, "lat": 43.4822245, "lon": -1.4223725, "tags": {"bus": "yes", "highway": "bus_stop", "name": "Mouguerre Barrière de Mouguerre", "public_transport": "platform"}}, {"type": "node", "id": 2134121745, "lat": 43.4861479, "lon": -1.3380782, "tags": {"bench": "yes", "bus": "yes", "highway": "bus_stop", "name": "Bourg", "network": "express 12", "operator": "Transport 64", "public_transport": "platform", "shelter": "yes"}}, {"type": "node", "id": 2134127004, "lat": 43.482187, "lon": -1.4414182, "tags": {"bench": "no", "bus": "yes", "highway": "bus_stop", "name": "École Port", "public_transport": "platform", "shelter": "no"}}, {"type": "node", "id": 2134127010, "lat": 43.4692329, "lon": -1.4253866, "tags": {"highway": "bus_stop", "name": "Aguerria", "public_transport": "platform"}}, {"type": "node", "id": 2134127032, "lat": 43.4683465, "lon": -1.417904, "tags": {"bench": "yes", "bus": "yes", "highway": "bus_stop", "name": "La Rhune", "public_transport": "platform", "shelter": "yes"}}, {"type": "node", "id": 2134127040, "lat": 43.467218, "lon": -1.4163517, "tags": {"bus": "yes", "highway": "bus_stop", "name": "Église du Bourg", "public_transport": "platform"}}, {"type": "node", "id": 2142223314, "lat": 43.5166188, "lon": -1.4292096, "tags": {"bench": "yes", "bin": "no", "bus": "yes", "highway": "bus_stop", "name": "Biarrotte", "network": "Chronoplus", "network:wikidata": "Q2409899", "operator": "Keolis Côte Basque-Adour", "public_transport": "platform", "shelter": "yes"}}, {"type": "node", "id": 2167674608, "lat": 43.345118, "lon": -1.6210612, "tags": {"bench": "yes", "bus": "yes", "highway": "bus_stop", "name": "Place", "public_transport": "platform", "shelter": "no"}}, {"type": "node", "id": 2180412342, "lat": 43.3341377, "lon": -1.6833134, "tags": {"bench": "yes", "bus": "yes", "highway": "bus_stop", "name": "Jolimont", "public_transport": "platform", "shelter": "yes"}}, {"type": "node", "id": 2180412473, "lat": 43.3424182, "lon": -1.7018499, "tags": {"bench": "no", "bus": "yes", "highway": "bus_stop", "public_transport": "platform", "shelter": "no"}}, {"type": "node", "id": 2201305232, "lat": 43.3890313, "lon": -1.6204379, "tags": {"bus": "yes", "public_transport": "stop_position"}}, {"type": "node", "id": 2206677849, "lat": 43.3951354, "lon": -1.6826693, "tags": {"ferry": "yes", "name": "Départ passeur", "public_transport": "stop_position", "shelter": "no"}}, {"type": "node", "id": 2240050786, "lat": 43.1912042, "lon": -0.8394715, "tags": {"bus": "yes", "name": "Roquiague", "public_transport": "stop_position"}}, {"type": "node", "id": 2262527241, "lat": 42.9858865, "lon": -1.3382373, "tags": {"bus": "yes", "highway": "bus_stop", "name": "Burguete II", "public_transport": "platform"}}, {"type": "node", "id": 2284336592, "lat": 43.190177, "lon": -0.903474, "tags": {"bench": "no", "bus": "yes", "highway": "bus_stop", "name": "Gotein Place", "network": "Txik Txak", "public_transport": "platform", "shelter": "no", "wheelchair": "no"}}, {"type": "node", "id": 2284336594, "lat": 43.1902477, "lon": -0.9033415, "tags": {"bench": "yes", "bus": "yes", "covered": "yes", "highway": "bus_stop", "name": "Gotein Place", "network": "Txik Txak", "public_transport": "platform", "shelter": "yes", "wheelchair": "no"}}, {"type": "node", "id": 2318397479, "lat": 43.4830538, "lon": -1.4824033, "tags": {"bus": "yes", "public_transport": "stop_position"}}, {"type": "node", "id": 2321308212, "lat": 43.4858292, "lon": -1.4907953, "tags": {"bus": "yes", "name": "Marouette", "public_transport": "stop_position"}}, {"type": "node", "id": 2321308214, "lat": 43.4857378, "lon": -1.4826796, "tags": {"bus": "yes", "name": "Jean Dauger", "public_transport": "stop_position"}}, {"type": "node", "id": 2321308216, "lat": 43.4850095, "lon": -1.494761, "tags": {"bus": "yes", "name": "Villa Pia", "public_transport": "stop_position"}}, {"type": "node", "id": 2321308217, "lat": 43.4850007, "lon": -1.4951006, "tags": {"bus": "yes", "name": "Villa Pia", "public_transport": "stop_position"}}, {"type": "node", "id": 2329624746, "lat": 43.2468464, "lon": -1.7075713, "tags": {"highway": "bus_stop", "public_transport": "platform"}}, {"type": "node", "id": 2334905960, "lat": 43.365632, "lon": -1.3966876, "tags": {"name": "Cambo-les-Bains", "name:eu": "Kanbo", "operator": "SNCF Gares & Connexions", "operator:wikidata": "Q3098278", "public_transport": "stop_position", "railway": "stop", "railway:position:exact": "216.625", "source": "SNCF - 06/2013", "train": "yes", "uic_ref": "8767365", "website": "http://www.ter-sncf.com/Region/aquitaine/gare/Cambo-les-Bains.aspx"}}, {"type": "node", "id": 2334905961, "lat": 43.3779561, "lon": -1.4277602, "tags": {"name": "Halsou-Larressore", "name:eu": "Haltsu-Larresoro", "operator": "SNCF Gares & Connexions", "operator:wikidata": "Q3098278", "public_transport": "stop_position", "railway": "stop", "railway:position:exact": "213.487", "source": "SNCF - 06/2013", "train": "yes", "uic_ref": "8767364"}}, {"type": "node", "id": 2336516714, "lat": 43.484049, "lon": -0.7676526, "tags": {"local_ref": "1", "name": "Orthez", "public_transport": "stop_position", "railway": "stop", "railway:position:exact": "255.484", "source": "BDOrtho IGN", "train": "yes", "uic_ref": "8767225"}}, {"type": "node", "id": 2351685761, "lat": 43.4255266, "lon": -1.6086732, "tags": {"name": "Guéthary", "name:eu": "Getaria", "network": "SNCF", "public_transport": "stop_position", "railway": "stop", "railway:position:exact": "214.129", "train": "yes"}}, {"type": "node", "id": 2351685762, "lat": 43.4255587, "lon": -1.6086828, "tags": {"name": "Guéthary", "name:eu": "Getaria", "network": "SNCF", "public_transport": "stop_position", "railway": "stop", "railway:position:exact": "214.129", "train": "yes"}}, {"type": "node", "id": 2366167241, "lat": 43.4456887, "lon": -1.5533357, "tags": {"bus": "yes", "highway": "bus_stop", "name": "Izarbel", "network": "Txik Txak", "network:wikidata": "Q86667794", "operator": "Chronoplus", "public_transport": "stop_position", "ref": "Izarbel"}}, {"type": "node", "id": 2388616925, "lat": 43.5002922, "lon": -1.5042223, "tags": {"bus": "yes", "public_transport": "stop_position"}}, {"type": "node", "id": 2388629678, "lat": 43.4994474, "lon": -1.4544117, "tags": {"bus": "yes", "name": "Camus", "public_transport": "stop_position"}}, {"type": "node", "id": 2391936563, "lat": 43.3468594, "lon": -0.7700078, "tags": {"bench": "yes", "bus": "yes", "highway": "bus_stop", "name": "Mairie", "public_transport": "platform", "ref:FR:CCBG": "11", "shelter": "yes", "source": "cadastre-dgi-fr source : Direction Générale des Finances Publiques - Cadastre. Mise à jour : 2013", "wheelchair": "no"}}, {"type": "node", "id": 2394275723, "lat": 43.4903446, "lon": -1.0105702, "tags": {"bench": "yes", "bus": "yes", "highway": "bus_stop", "name": "La Place", "public_transport": "platform", "ref:FR:CCBG": "16", "shelter": "yes", "source": "cadastre-dgi-fr source : Direction Générale des Finances Publiques - Cadastre. Mise à jour : 2013"}}, {"type": "node", "id": 2423801951, "lat": 43.3755754, "lon": -1.7621565, "tags": {"bench": "no", "bin": "no", "bus": "yes", "highway": "bus_stop", "lit": "yes", "name": "Les 2 jumeaux", "public_transport": "platform", "shelter": "yes", "tactile_paving": "no"}}, {"type": "node", "id": 2436291968, "lat": 43.4883988, "lon": -1.4785192, "tags": {"bus": "yes", "public_transport": "stop_position"}}, {"type": "node", "id": 2443359030, "lat": 43.4754488, "lon": -1.5575346, "tags": {"bus": "yes", "name": "Saint-Martin", "public_transport": "stop_position"}}, {"type": "node", "id": 2452316474, "lat": 43.312163, "lon": -1.5823887, "tags": {"bus": "yes", "public_transport": "stop_position"}}, {"type": "node", "id": 2461366182, "lat": 43.0889059, "lon": -1.4243927, "tags": {"bus": "yes", "name": "Pierre Oteiza", "network": "Txik Txak", "public_transport": "stop_position"}}, {"type": "node", "id": 2467844972, "lat": 43.4750445, "lon": -0.913289, "tags": {"bench": "yes", "bus": "yes", "highway": "bus_stop", "name": "Salies-de-Béarn - Le Golf", "network": "Lignes Interurbaines Nouvelle-Aquitaine", "public_transport": "platform", "shelter": "yes"}}, {"type": "node", "id": 2467844973, "lat": 43.4751897, "lon": -0.9131389, "tags": {"bench": "no", "bus": "yes", "highway": "bus_stop", "name": "Salies-de-Béarn - Le Golf", "network": "Lignes Interurbaines Nouvelle-Aquitaine", "public_transport": "platform", "shelter": "no", "wheelchair": "no"}}, {"type": "node", "id": 2503124151, "lat": 43.1899784, "lon": -1.1663661, "tags": {"bench": "no", "bus": "yes", "highway": "bus_stop", "name": "Mairie", "public_transport": "platform", "shelter": "no", "wheelchair": "no"}}, {"type": "node", "id": 2503124158, "lat": 43.1900832, "lon": -1.1660975, "tags": {"bench": "no", "bus": "yes", "highway": "bus_stop", "name": "Mairie", "public_transport": "platform", "shelter": "no", "wheelchair": "no"}}, {"type": "node", "id": 2514284412, "lat": 43.126035, "lon": -1.7427995, "tags": {"bench": "yes", "bin": "no", "bus": "yes", "highway": "bus_stop", "lit": "yes", "name": "Zubieta", "public_transport": "platform", "shelter": "yes", "tactile_paving": "no"}}, {"type": "node", "id": 2525267417, "lat": 43.167825, "lon": -1.2523826, "tags": {"bus": "yes", "name": "Garatain", "network": "Txik Txak", "public_transport": "stop_position"}}, {"type": "node", "id": 2525267418, "lat": 43.1678017, "lon": -1.252254, "tags": {"bench": "yes", "bus": "yes", "highway": "bus_stop", "name": "Garataine", "network": "Txik Txak", "network:wikidata": "Q86667794", "network:wikipedia": "fr:Txik Txak", "public_transport": "platform", "shelter": "yes", "wheelchair": "no"}}, {"type": "node", "id": 2542281426, "lat": 43.3720803, "lon": -1.7468449, "tags": {"bench": "yes", "bin": "no", "bus": "yes", "check_date:shelter": "2023-07-18", "highway": "bus_stop", "name": "Agerrea", "public_transport": "platform", "shelter": "yes"}}, {"type": "node", "id": 2559832248, "lat": 43.4622329, "lon": -1.4468104, "tags": {"highway": "bus_stop", "name": "Ourthoua", "passenger_information_display": "yes", "public_transport": "platform", "shelter": "no"}}, {"type": "node", "id": 2559832273, "lat": 43.463827, "lon": -1.4459653, "tags": {"bench": "yes", "bus": "yes", "highway": "bus_stop", "name": "Bel Air", "public_transport": "platform", "shelter": "yes"}}, {"type": "node", "id": 2559856113, "lat": 43.4549095, "lon": -1.4391891, "tags": {"bench": "no", "bin": "no", "bus": "yes", "highway": "bus_stop", "name": "Mispiracoitz", "passenger_information_display": "no", "public_transport": "platform", "shelter": "no", "tactile_paving": "no"}}, {"type": "node", "id": 2559856116, "lat": 43.4578183, "lon": -1.449423, "tags": {"bench": "yes", "bus": "yes", "highway": "bus_stop", "name": "Harri Xuri", "public_transport": "platform", "shelter": "yes"}}, {"type": "node", "id": 2559856118, "lat": 43.4583732, "lon": -1.4490663, "tags": {"bench": "no", "bus": "yes", "highway": "bus_stop", "name": "Harri Xuri", "public_transport": "platform", "shelter": "no"}}, {"type": "node", "id": 2559856119, "lat": 43.4595166, "lon": -1.4304992, "tags": {"bench": "no", "bus": "yes", "highway": "bus_stop", "name": "Mastouloucia", "public_transport": "platform", "shelter": "no"}}, {"type": "node", "id": 2601389046, "lat": 43.5273793, "lon": -1.5206662, "tags": {"bench": "yes", "bin": "yes", "bus": "yes", "covered": "yes", "highway": "bus_stop", "lit": "yes", "name": "La Barre", "network": "Chronoplus", "network:wikidata": "Q2409899", "operator": "Keolis Côte Basque-Adour", "public_transport": "platform", "shelter": "yes", "tactile_paving": "no"}}, {"type": "node", "id": 2618491848, "lat": 43.3365857, "lon": -1.7777916, "tags": {"bench": "no", "bin": "no", "bus": "yes", "highway": "bus_stop", "lit": "yes", "public_transport": "platform", "shelter": "no", "tactile_paving": "no"}}, {"type": "node", "id": 2912763554, "lat": 43.3424947, "lon": -1.7643612, "tags": {"bus": "yes", "highway": "bus_stop", "name": "Behobia", "public_transport": "platform", "ref": "4063", "shelter": "yes"}}, {"type": "node", "id": 2931038517, "lat": 43.3348105, "lon": -1.7889178, "tags": {"bench": "yes", "bin": "yes", "bus": "yes", "highway": "bus_stop", "lit": "yes", "name": "Iñigo Loyola 2", "public_transport": "platform", "ref": "345", "shelter": "yes", "tactile_paving": "no"}}, {"type": "node", "id": 2931038518, "lat": 43.32698, "lon": -1.78792, "tags": {"bus": "yes", "highway": "bus_stop", "name": "Olaberria", "public_transport": "platform", "ref": "4083", "shelter": "yes"}}, {"type": "node", "id": 2931038519, "lat": 43.3368127, "lon": -1.786422, "tags": {"bench": "no", "bin": "no", "bus": "yes", "highway": "bus_stop", "lit": "yes", "name": "Ospitale zaharra", "public_transport": "platform", "ref": "4085", "shelter": "no", "tactile_paving": "no"}}, {"type": "node", "id": 2931038520, "lat": 43.3368614, "lon": -1.7866205, "tags": {"bench": "no", "bin": "no", "bus": "yes", "highway": "bus_stop", "lit": "yes", "name": "Urdanibia plaza", "public_transport": "platform", "ref": "7074", "shelter": "no", "tactile_paving": "no"}}, {"type": "node", "id": 2949014898, "lat": 43.4620728, "lon": -1.5673876, "tags": {"bench": "no", "bus": "yes", "highway": "bus_stop", "name": "Biarritz Camping", "public_transport": "platform", "shelter": "no"}}, {"type": "node", "id": 2949014899, "lat": 43.4621278, "lon": -1.5673544, "tags": {"bench": "no", "bus": "yes", "highway": "bus_stop", "name": "Biarritz Camping", "public_transport": "platform", "shelter": "no"}}, {"type": "node", "id": 2952051607, "lat": 43.3366639, "lon": -1.7751507, "tags": {"bench": "no", "bin": "no", "bus": "yes", "highway": "bus_stop", "lit": "no", "name": "Blaia 22", "public_transport": "platform", "ref": "315", "shelter": "no", "tactile_paving": "no"}}, {"type": "node", "id": 2952051608, "lat": 43.3407894, "lon": -1.7709802, "tags": {"bench": "yes", "bin": "no", "bus": "yes", "highway": "bus_stop", "lit": "yes", "name": "José María Franco", "public_transport": "platform", "ref": "320", "shelter": "yes", "tactile_paving": "no"}}, {"type": "node", "id": 2952051609, "lat": 43.337839, "lon": -1.7796171, "tags": {"bench": "no", "bin": "no", "bus": "yes", "highway": "bus_stop", "lit": "yes", "name": "Juan Wollmer 5", "public_transport": "platform", "ref": "7073", "shelter": "no", "tactile_paving": "yes"}}, {"type": "node", "id": 2959573858, "lat": 43.4752546, "lon": -1.5663077, "tags": {"bench": "no", "bus": "yes", "highway": "bus_stop", "name": "Square Lassalle", "public_transport": "platform", "shelter": "no"}}, {"type": "node", "id": 2959573864, "lat": 43.4696784, "lon": -1.569501, "tags": {"bench": "no", "bin": "no", "bus": "yes", "highway": "bus_stop", "lit": "yes", "name": "Madrid-Milady", "public_transport": "platform", "shelter": "no", "tactile_paving": "no"}}, {"type": "node", "id": 2959573909, "lat": 43.4630843, "lon": -1.5706043, "tags": {"bench": "no", "bus": "yes", "highway": "bus_stop", "name": "Cité de l'Océan", "public_transport": "platform", "shelter": "no"}}, {"type": "node", "id": 2959573910, "lat": 43.4630921, "lon": -1.5707795, "tags": {"bus": "yes", "highway": "bus_stop", "name": "Cité de l'Océan", "public_transport": "platform"}}, {"type": "node", "id": 2959574496, "lat": 43.470996, "lon": -1.5683104, "tags": {"bench": "yes", "bin": "yes", "highway": "bus_stop", "lit": "no", "name": "Beaurivage", "public_transport": "platform", "shelter": "yes", "tactile_paving": "yes"}}, {"type": "node", "id": 2959575725, "lat": 43.4670392, "lon": -1.5717908, "tags": {"bench": "yes", "bin": "yes", "bus": "yes", "highway": "bus_stop", "name": "Thermes Marins", "public_transport": "platform", "shelter": "yes"}}, {"type": "node", "id": 2984753223, "lat": 43.5168223, "lon": -1.5016564, "tags": {"bench": "no", "bin": "no", "bus": "yes", "check_date:shelter": "2023-02-24", "highway": "bus_stop", "name": "La Bécasse", "public_transport": "platform", "shelter": "no", "tactile_paving": "no"}}, {"type": "node", "id": 3006879657, "lat": 43.3587978, "lon": -0.9152066, "tags": {"bench": "yes", "bus": "yes", "highway": "bus_stop", "lit": "no", "name": "Foyer Garay", "public_transport": "platform", "ref:FR:CCBG": "25", "shelter": "yes", "source": "cadastre-dgi-fr source : Direction Générale des Finances Publiques - Cadastre. Mise à jour : 2014"}}, {"type": "node", "id": 3020688692, "lat": 43.4846247, "lon": -0.7761767, "tags": {"bench": "yes", "bin": "yes", "bus": "yes", "departures_board": "no", "highway": "bus_stop", "lit": "yes", "name": "Orthez - Gascoin", "network": "MobiLacq", "operator": "MobiLacq", "public_transport": "platform", "ref": "Point d'arrivée n°AF", "shelter": "yes", "tactile_paving": "yes", "wheelchair": "no"}}, {"type": "node", "id": 3027060829, "lat": 43.293398, "lon": -1.5048989, "tags": {"bus": "yes", "public_transport": "stop_position"}}, {"type": "node", "id": 3065624805, "lat": 43.2253109, "lon": -1.6995773, "tags": {"highway": "bus_stop", "public_transport": "platform"}}, {"type": "node", "id": 3102597246, "lat": 43.0856058, "lon": -1.7495967, "tags": {"highway": "bus_stop", "public_transport": "platform"}}, {"type": "node", "id": 3295063999, "lat": 43.1970468, "lon": -1.7247571, "tags": {"bench": "yes", "highway": "bus_stop", "public_transport": "platform", "shelter": "yes"}}, {"type": "node", "id": 3368189487, "lat": 43.3611545, "lon": -1.4012889, "tags": {"bench": "yes", "bin": "yes", "bus": "yes", "highway": "bus_stop", "name": "Place Sorhaïnde", "public_transport": "platform", "shelter": "yes", "tactile_paving": "no"}}, {"type": "node", "id": 3425615999, "lat": 43.4802552, "lon": -1.5259396, "tags": {"bus": "yes", "name": "Moura", "name:oc": "Lo Morar", "public_transport": "stop_position", "source:name:oc": "ieo-bdtopoc"}}, {"type": "node", "id": 3425616000, "lat": 43.4803021, "lon": -1.525932, "tags": {"bench": "yes", "bin": "yes", "bus": "yes", "covered": "yes", "highway": "bus_stop", "lit": "yes", "name": "Moura", "name:oc": "Lo Morar", "public_transport": "platform", "shelter": "yes", "source:name:oc": "Lo Congrès", "tactile_paving": "no"}}, {"type": "node", "id": 3449111684, "lat": 43.0499962, "lon": -0.8827541, "tags": {"bench": "yes", "bus": "yes", "highway": "bus_stop", "public_transport": "platform", "shelter": "yes"}}, {"type": "node", "id": 3550514231, "lat": 43.5265411, "lon": -1.4503939, "tags": {"bus": "yes", "public_transport": "stop_position"}}, {"type": "node", "id": 3562891998, "lat": 43.4810811, "lon": -1.4825354, "tags": {"bus": "yes", "name": "Lycée", "public_transport": "stop_position"}}, {"type": "node", "id": 3563713813, "lat": 43.4900352, "lon": -1.481602, "tags": {"bus": "yes", "highway": "bus_stop", "name": "Champ de Foire", "passenger_information_display": "yes", "public_transport": "platform", "shelter": "no"}}, {"type": "node", "id": 3563716393, "lat": 43.4921454, "lon": -1.4769562, "tags": {"bench": "no", "bin": "no", "bus": "yes", "highway": "bus_stop", "lit": "no", "name": "Château Vieux", "public_transport": "platform", "shelter": "no", "tactile_paving": "no"}}, {"type": "node", "id": 3732183834, "lat": 43.4810339, "lon": -1.5356284, "tags": {"bus": "yes", "name": "Aguilera", "public_transport": "stop_position"}}, {"type": "node", "id": 3737600747, "lat": 43.4733786, "lon": -1.4516379, "tags": {"bench": "yes", "bin": "yes", "highway": "bus_stop", "name": "Plaza Berri", "public_transport": "platform", "shelter": "yes", "tactile_paving": "no"}}, {"type": "node", "id": 3737600757, "lat": 43.4735146, "lon": -1.4516633, "tags": {"bench": "yes", "bin": "yes", "bus": "yes", "highway": "bus_stop", "name": "Plaza Berri", "public_transport": "platform", "shelter": "yes", "tactile_paving": "no"}}, {"type": "node", "id": 3754141434, "lat": 43.4545056, "lon": -0.9940802, "tags": {"bench": "yes", "bus": "yes", "highway": "bus_stop", "name": "Place de la Mairie", "public_transport": "platform", "ref:FR:CCBG": "17", "shelter": "yes"}}, {"type": "node", "id": 3896907393, "lat": 43.3482285, "lon": -1.7863193, "tags": {"bench": "no", "bus": "yes", "highway": "bus_stop", "lit": "no", "name": "Ficoba", "network": "Txik Txak; Irunbus", "operator": "ATCRB", "public_transport": "platform", "shelter": "no", "website": "https://www.transfermuga.eu/transports64/"}}, {"type": "node", "id": 3901733440, "lat": 43.2240988, "lon": -0.8785633, "tags": {"bus": "yes", "public_transport": "stop_position"}}, {"type": "node", "id": 3917374447, "lat": 43.4412506, "lon": -1.4012021, "tags": {"bus": "yes", "name": "Église Elizaberry", "public_transport": "stop_position"}}, {"type": "node", "id": 3979700912, "lat": 43.3531722, "lon": -1.7819866, "tags": {"level": "0", "local_ref": "2", "name": "Hendaye", "name:es": "Hendaya", "name:eu": "Hendaia", "name:fr": "Hendaye", "operator": "SNCF Gares & Connexions", "operator:wikidata": "Q3098278", "public_transport": "stop_position", "railway": "stop", "railway:position:exact": "232.796", "train": "yes", "uic_ref": "8767700"}}, {"type": "node", "id": 4014816156, "lat": 43.4882242, "lon": -1.4723825, "tags": {"bus": "yes", "name": "Arsenal", "public_transport": "stop_position"}}, {"type": "node", "id": 4126831361, "lat": 43.4888484, "lon": -1.4678869, "tags": {"bench": "yes", "bus": "yes", "highway": "bus_stop", "name": "Poydenot", "public_transport": "platform", "shelter": "yes"}}, {"type": "node", "id": 4126831362, "lat": 43.4886759, "lon": -1.4676443, "tags": {"bench": "no", "bus": "yes", "highway": "bus_stop", "name": "Poydenot", "public_transport": "platform", "shelter": "yes"}}, {"type": "node", "id": 4127494890, "lat": 43.4886443, "lon": -1.4677457, "tags": {"bus": "yes", "name": "Poydenot", "public_transport": "stop_position"}}, {"type": "node", "id": 4127494891, "lat": 43.4888487, "lon": -1.4678537, "tags": {"bus": "yes", "name": "Poydenot", "public_transport": "stop_position"}}, {"type": "node", "id": 4147091589, "lat": 43.4772451, "lon": -1.5528664, "tags": {"bus": "yes", "highway": "bus_stop", "name": "Avenue Charles Floquet", "public_transport": "platform", "shelter": "no"}}, {"type": "node", "id": 4170455516, "lat": 43.3531041, "lon": -1.7709231, "tags": {"bench": "no", "bus": "yes", "covered": "no", "highway": "bus_stop", "name": "Villa Concha", "network": "URIBIL", "operator": "Agglomération Sud Pays Basque", "operator:eu": "Hego Lapurdiko Hirigunea", "operator:fr": "Agglomération Sud Pays Basque", "public_transport": "stop_position", "shelter": "no"}}, {"type": "node", "id": 4170455517, "lat": 43.3534552, "lon": -1.7718673, "tags": {"bench": "no", "bus": "yes", "covered": "no", "highway": "bus_stop", "name": "Villa Concha", "network": "URIBIL", "operator": "Agglomération Sud Pays Basque", "operator:eu": "Hego Lapurdiko Hirigunea", "operator:fr": "Agglomération Sud Pays Basque", "public_transport": "stop_position", "shelter": "no"}}, {"type": "node", "id": 4170464652, "lat": 43.3536157, "lon": -1.7743531, "tags": {"bench": "no", "bus": "yes", "covered": "no", "highway": "bus_stop", "name": "Irandatz", "network": "URIBIL", "operator": "Agglomération Sud Pays Basque", "operator:eu": "Hego Lapurdiko Hirigunea", "operator:fr": "Agglomération Sud Pays Basque", "public_transport": "stop_position", "shelter": "no"}}, {"type": "node", "id": 4171027979, "lat": 43.3494118, "lon": -1.771337, "tags": {"bench": "yes", "bus": "yes", "covered": "yes", "highway": "bus_stop", "name": "Centre Commercial Bidassoa", "name:eu": "Bidasoa Merkataritza Gunea", "network": "Hegobus", "operator": "Agglomération Sud Pays Basque", "operator:eu": "Hego Lapurdiko Hirigunea", "operator:fr": "Agglomération Sud Pays Basque", "public_transport": "stop_position", "ref": "Ligne Verte / Linea Berdea;Ligne Bleue / Linea Urdiña", "shelter": "no"}}, {"type": "node", "id": 4171027980, "lat": 43.3495903, "lon": -1.7715904, "tags": {"bench": "no", "bus": "yes", "covered": "no", "highway": "bus_stop", "name": "Centre Commercial Bidassoa", "name:eu": "Bidasoa Merkataritza Gunea", "network": "Hegobus", "operator": "Agglomération Sud Pays Basque", "operator:eu": "Hego Lapurdiko Hirigunea", "operator:fr": "Agglomération Sud Pays Basque", "public_transport": "stop_position", "ref": "Ligne Verte / Linea Berdea;Ligne Bleue / Linea Urdiña", "shelter": "no"}}, {"type": "node", "id": 4171129142, "lat": 43.347681, "lon": -1.7703746, "tags": {"bench": "yes", "bus": "yes", "covered": "yes", "highway": "bus_stop", "name": "Autoport", "name:eu": "Autoportua", "name:fr": "Autoport", "network": "URIBIL", "operator": "Agglomération Sud Pays Basque", "operator:eu": "Hego Lapurdiko Hirigunea", "operator:fr": "Agglomération Sud Pays Basque", "public_transport": "stop_position", "ref": "Ligne Verte / Linea Berdea", "shelter": "no"}}, {"type": "node", "id": 4171129143, "lat": 43.3465968, "lon": -1.7707428, "tags": {"bench": "yes", "bus": "yes", "covered": "yes", "highway": "bus_stop", "name": "Autoport", "name:eu": "Autoportua", "network": "URIBIL", "operator": "Agglomération Sud Pays Basque", "operator:eu": "Hego Lapurdiko Hirigunea", "operator:fr": "Agglomération Sud Pays Basque", "public_transport": "stop_position", "ref": "Ligne Verte / Linea Berdea", "shelter": "no"}}, {"type": "node", "id": 4171180969, "lat": 43.3533071, "lon": -1.7810871, "tags": {"bench": "yes", "bin": "yes", "bus": "yes", "highway": "bus_stop", "lit": "yes", "name": "Gare d'Hendaye", "network": "Txik Txak", "network:wikidata": "Q86667794", "operator": "Agglomération Sud Pays Basque", "operator:eu": "Hego Lapurdiko Hirigunea", "public_transport": "platform", "shelter": "yes", "tactile_paving": "no"}}, {"type": "node", "id": 4171248892, "lat": 43.3457181, "lon": -1.7641368, "tags": {"bus": "yes", "highway": "bus_stop", "name": "Béhobie", "network": "Txik Txak", "network:wikidata": "Q86667794", "operator": "Agglomération Sud Pays Basque", "public_transport": "platform"}}, {"type": "node", "id": 4171248897, "lat": 43.3459217, "lon": -1.7638545, "tags": {"bus": "yes", "name": "Béhobie", "name:eu": "Pausu", "name:fr": "Béhobie", "network": "TXIK TXAK", "operator": "Agglomération Sud Pays Basque", "public_transport": "stop_position", "ref": "4"}}, {"type": "node", "id": 4171759115, "lat": 43.3583586, "lon": -1.7743088, "tags": {"bench": "no", "bus": "yes", "highway": "bus_stop", "name": "Mairie", "name:eu": "Herriko Etxea", "network": "URIBIL", "operator": "Agglomération Sud Pays Basque", "public_transport": "platform", "shelter": "no"}}, {"type": "node", "id": 4171759117, "lat": 43.3607706, "lon": -1.7743936, "tags": {"bus": "yes", "public_transport": "stop_position"}}, {"type": "node", "id": 4171759153, "lat": 43.3597041, "lon": -1.7715717, "tags": {"bus": "yes", "highway": "bus_stop", "name": "Belcenia", "name:eu": "Beltzenea", "name:fr": "Belcenia", "network": "URIBIL", "operator": "Agglomération Sud Pays Basque", "public_transport": "platform", "ref": "Ligne Verte / Linea Berdea"}}, {"type": "node", "id": 4171777454, "lat": 43.3586696, "lon": -1.7717888, "tags": {"bench": "yes", "bus": "yes", "highway": "bus_stop", "name": "Bas Quartier", "name:eu": "Partxetegia", "network": "URIBIL", "operator": "Agglomération Sud Pays Basque", "public_transport": "platform", "ref": "Ligne Bleue / Linea Urdiña", "shelter": "yes"}}, {"type": "node", "id": 4171782803, "lat": 43.3496401, "lon": -1.7772747, "tags": {"bench": "no", "bus": "yes", "highway": "bus_stop", "name": "Chênes", "name:eu": "Haritzak", "network": "URIBIL", "operator": "Agglomération Sud Pays Basque", "public_transport": "platform", "shelter": "no"}}, {"type": "node", "id": 4171782804, "lat": 43.3495188, "lon": -1.7774798, "tags": {"bus": "yes", "highway": "bus_stop", "name": "Chênes", "name:eu": "Haritzak", "network": "URIBIL", "operator": "Agglomération Sud Pays Basque", "public_transport": "platform", "shelter": "no"}}, {"type": "node", "id": 4189097289, "lat": 43.3559805, "lon": -1.7774963, "tags": {"bench": "no", "bin": "no", "bus": "yes", "covered": "no", "highway": "bus_stop", "lit": "yes", "name": "Casa Esperenza", "network": "URIBIL", "operator": "Agglomération Sud Pays Basque", "operator:eu": "Hego Lapurdiko Hirigunea", "public_transport": "platform", "ref": "Ligne Bleue / Linea Urdiña", "shelter": "no", "tactile_paving": "yes"}}, {"type": "node", "id": 4189097310, "lat": 43.353588, "lon": -1.774039, "tags": {"bench": "no", "bus": "yes", "covered": "no", "highway": "bus_stop", "name": "Irandatz", "network": "URIBIL", "operator": "Agglomération Sud Pays Basque", "operator:eu": "Hego Lapurdiko Hirigunea", "operator:fr": "Agglomération Sud Pays Basque", "public_transport": "stop_position", "shelter": "no"}}, {"type": "node", "id": 4197875921, "lat": 43.3509138, "lon": -1.7826122, "tags": {"bench": "no", "bus": "yes", "highway": "bus_stop", "name": "Commissariat", "network": "URIBIL", "operator": "Agglomération Sud Pays Basque", "operator:eu": "Hego Lapurdiko Hirigunea", "public_transport": "platform", "ref": "Ligne Bleue / Linea Urdiña", "shelter": "no"}}, {"type": "node", "id": 4198555477, "lat": 43.4792277, "lon": -1.4557656, "tags": {"bench": "yes", "bin": "yes", "bus": "yes", "highway": "bus_stop", "name": "Belharra", "passenger_information_display": "yes", "public_transport": "platform", "route_ref": "6;50", "shelter": "yes", "tactile_paving": "yes"}}, {"type": "node", "id": 4198555478, "lat": 43.479091, "lon": -1.4559189, "tags": {"bench": "yes", "bin": "yes", "covered": "yes", "highway": "bus_stop", "lit": "yes", "name": "Belharra", "passenger_information_display": "yes", "public_transport": "platform", "route_ref": "6;50", "shelter": "yes", "tactile_paving": "yes"}}, {"type": "node", "id": 4198555479, "lat": 43.4811145, "lon": -1.4602244, "tags": {"bench": "yes", "bus": "yes", "covered": "no", "highway": "bus_stop", "name": "Château d'Eau", "public_transport": "platform", "shelter": "no"}}, {"type": "node", "id": 4198555480, "lat": 43.4810078, "lon": -1.4600995, "tags": {"bench": "no", "bin": "no", "bus": "yes", "covered": "no", "highway": "bus_stop", "name": "Château d'Eau", "public_transport": "platform", "shelter": "no"}}, {"type": "node", "id": 4198555481, "lat": 43.4776079, "lon": -1.4578373, "tags": {"bench": "yes", "bin": "no", "covered": "yes", "highway": "bus_stop", "name": "Zelaia", "public_transport": "platform", "shelter": "yes"}}, {"type": "node", "id": 4198555482, "lat": 43.4775206, "lon": -1.4576212, "tags": {"bench": "yes", "bus": "yes", "covered": "yes", "highway": "bus_stop", "name": "Zelaia", "public_transport": "platform", "shelter": "yes"}}, {"type": "node", "id": 4207882795, "lat": 43.3699911, "lon": -1.7643597, "tags": {"name": "Les Deux-Jumeaux", "operator": "SNCF Gares & Connexions", "operator:wikidata": "Q3098278", "public_transport": "stop_position", "railway": "stop", "railway:position:exact": "230.200", "source": "SNCF - 06/2013", "train": "yes", "uic_ref": "8767710", "website": "http://www.ter-sncf.com/Region/aquitaine/gare/Les-Deux-Jumeaux.aspx"}}, {"type": "node", "id": 4213476993, "lat": 43.5234177, "lon": -1.490651, "tags": {"name": "Boucau", "operator": "SNCF Gares & Connexions", "operator:wikidata": "Q3098278", "public_transport": "stop_position", "railway": "stop", "railway:position:exact": "193.787", "train": "yes", "uic_ref": "8767309"}}, {"type": "node", "id": 4248212057, "lat": 43.3938792, "lon": -1.6615366, "tags": {"ferry": "yes", "public_transport": "stop_position"}}, {"type": "node", "id": 4281763830, "lat": 43.4789362, "lon": -1.4737457, "tags": {"bench": "yes", "bus": "yes", "highway": "bus_stop", "name": "La Floride", "public_transport": "platform", "shelter": "yes"}}, {"type": "node", "id": 4296748989, "lat": 43.481536, "lon": -1.4839456, "tags": {"bus": "yes", "highway": "bus_stop", "name": "Jacques Loeb", "public_transport": "platform"}}, {"type": "node", "id": 4296748990, "lat": 43.481081, "lon": -1.4824739, "tags": {"bench": "yes", "bin": "yes", "bus": "yes", "covered": "yes", "highway": "bus_stop", "lit": "yes", "name": "Lycée", "public_transport": "platform", "shelter": "yes", "tactile_paving": "no"}}, {"type": "node", "id": 4296748991, "lat": 43.4740923, "lon": -1.4855686, "tags": {"bus": "yes", "highway": "bus_stop", "name": "Panorama", "public_transport": "platform"}}, {"type": "node", "id": 4297484792, "lat": 43.4719743, "lon": -1.5266912, "tags": {"bench": "no", "bin": "yes", "bus": "yes", "highway": "bus_stop", "name": "7 Puits", "public_transport": "platform", "shelter": "no"}}, {"type": "node", "id": 4298747699, "lat": 43.4935183, "lon": -1.5457329, "tags": {"bench": "yes", "bin": "yes", "bus": "yes", "highway": "bus_stop", "lit": "yes", "name": "Mer et Golf", "public_transport": "platform", "shelter": "no", "tactile_paving": "yes"}}, {"type": "node", "id": 4298747899, "lat": 43.4934716, "lon": -1.5456155, "tags": {"bench": "no", "bin": "no", "bus": "yes", "highway": "bus_stop", "lit": "yes", "name": "Mer et Golf", "public_transport": "platform", "shelter": "no", "tactile_paving": "yes"}}, {"type": "node", "id": 4300699892, "lat": 43.4824956, "lon": -1.4826011, "tags": {"bench": "yes", "bin": "no", "bus": "yes", "covered": "yes", "highway": "bus_stop", "lit": "yes", "name": "Hôpital", "network": "TXIK TXAK", "operator": "RD PBA", "public_transport": "platform", "shelter": "yes", "tactile_paving": "no"}}, {"type": "node", "id": 4300709191, "lat": 43.4766822, "lon": -1.4839373, "tags": {"bench": "yes", "bus": "yes", "highway": "bus_stop", "name": "Marrac-Largenté", "public_transport": "platform", "shelter": "yes"}}, {"type": "node", "id": 4300722490, "lat": 43.4841765, "lon": -1.5042912, "tags": {"bench": "yes", "bin": "yes", "bus": "yes", "highway": "bus_stop", "lit": "yes", "name": "Les Barthes", "public_transport": "platform", "shelter": "yes", "tactile_paving": "no"}}, {"type": "node", "id": 4300727190, "lat": 43.4830049, "lon": -1.5034604, "tags": {"bus": "yes", "name": "L'Union", "network": "Chronoplus", "operator": "Transdev Agglomération de Bayonne", "public_transport": "stop_position"}}, {"type": "node", "id": 4319294789, "lat": 43.486729, "lon": -1.5504356, "tags": {"bench": "no", "bus": "yes", "highway": "bus_stop", "name": "Mimosa", "public_transport": "platform", "shelter": "no", "source": "survey"}}, {"type": "node", "id": 4323312093, "lat": 43.4905124, "lon": -1.4986541, "tags": {"bench": "yes", "bin": "yes", "bus": "yes", "highway": "bus_stop", "lit": "yes", "name": "BAB 2", "name:oc": "BAB 2", "public_transport": "platform", "shelter": "yes", "source:name:oc": "Lo Congrès", "tactile_paving": "no"}}, {"type": "node", "id": 4323312094, "lat": 43.4919701, "lon": -1.4811177, "tags": {"bench": "yes", "bin": "yes", "bus": "yes", "covered": "yes", "highway": "bus_stop", "lit": "yes", "name": "Paulmy", "public_transport": "platform", "shelter": "yes", "tactile_paving": "no"}}, {"type": "node", "id": 4323336089, "lat": 43.4931023, "lon": -1.5165001, "tags": {"bench": "yes", "bin": "yes", "bus": "yes", "highway": "bus_stop", "lit": "yes", "name": "Bois Belin", "public_transport": "platform", "shelter": "yes", "tactile_paving": "yes"}}, {"type": "node", "id": 4323336090, "lat": 43.4756979, "lon": -1.5660409, "tags": {"bench": "no", "bin": "no", "bus": "yes", "highway": "bus_stop", "lit": "yes", "name": "Square Lassalle", "public_transport": "platform", "shelter": "no", "tactile_paving": "no"}}, {"type": "node", "id": 4329062719, "lat": 43.4779073, "lon": -1.5542145, "tags": {"amenity": "bus_station", "name": "Gare routière"}}, {"type": "node", "id": 4362915356, "lat": 43.3656168, "lon": -1.204673, "tags": {"bench": "yes", "bus": "yes", "highway": "bus_stop", "name": "Mairie", "network": "Txik Txak", "operator": "Transdev", "public_transport": "platform", "shelter": "yes"}}, {"type": "node", "id": 4366247902, "lat": 43.3895685, "lon": -1.3027214, "tags": {"bench": "yes", "bus": "yes", "highway": "bus_stop", "name": "Eyhertzea", "public_transport": "platform", "shelter": "yes"}}, {"type": "node", "id": 4374491897, "lat": 43.3666472, "lon": -1.2053499, "tags": {"bus": "yes", "name": "Mairie", "network": "Txik Txak", "public_transport": "stop_position"}}, {"type": "node", "id": 4375833049, "lat": 43.4591906, "lon": -1.545883, "tags": {"local_ref": "2", "name": "Biarritz", "public_transport": "stop_position", "railway": "stop", "railway:position:exact": "207.291", "train": "yes", "uic_ref": "8767340"}}, {"type": "node", "id": 4375833054, "lat": 43.4596454, "lon": -1.5460401, "tags": {"bus": "yes", "name": "Biarritz Gare", "public_transport": "stop_position"}}, {"type": "node", "id": 4375833055, "lat": 43.4597291, "lon": -1.5454379, "tags": {"bus": "yes", "name": "Biarritz Gare", "public_transport": "stop_position"}}, {"type": "node", "id": 4375833056, "lat": 43.4607222, "lon": -1.5468848, "tags": {"bench": "no", "bin": "yes", "bus": "yes", "highway": "bus_stop", "name": "Viaduc-Gare de Biarritz", "public_transport": "platform", "shelter": "no"}}, {"type": "node", "id": 4375833057, "lat": 43.460594, "lon": -1.5472705, "tags": {"bench": "yes", "bin": "yes", "bus": "yes", "highway": "bus_stop", "name": "Viaduc-Gare de Biarritz", "public_transport": "platform", "shelter": "yes"}}, {"type": "node", "id": 4391394581, "lat": 43.471335, "lon": -1.5355343, "tags": {"bench": "no", "bin": "no", "bus": "yes", "check_date:bench": "2022-06-17", "covered": "no", "highway": "bus_stop", "lit": "yes", "name": "Parme", "public_transport": "platform", "ref": "PPARM02", "shelter": "no", "tactile_paving": "yes"}}, {"type": "node", "id": 4391394582, "lat": 43.4711707, "lon": -1.5353699, "tags": {"bench": "no", "bin": "no", "bus": "yes", "covered": "no", "highway": "bus_stop", "name": "Parme", "public_transport": "platform", "ref": "PPARM01", "shelter": "no", "tactile_paving": "yes"}}, {"type": "node", "id": 4393398008, "lat": 43.3510687, "lon": -1.7833243, "tags": {"bench": "yes", "bin": "no", "bus": "yes", "highway": "bus_stop", "lit": "yes", "name": "Pont International", "name:es": "Puente Internacional", "network": "OUIBUS;Alsa;Flixbus;Eurolines", "public_transport": "platform", "route_ref": "Flixbus N1158, N1160", "shelter": "yes", "tactile_paving": "no"}}, {"type": "node", "id": 4406652188, "lat": 43.4850533, "lon": -1.4951261, "tags": {"bench": "yes", "bin": "yes", "bus": "yes", "highway": "bus_stop", "lit": "no", "name": "Villa Pia", "public_transport": "platform", "shelter": "yes", "tactile_paving": "no"}}, {"type": "node", "id": 4406654689, "lat": 43.4849442, "lon": -1.4947339, "tags": {"bench": "yes", "bin": "yes", "bus": "yes", "highway": "bus_stop", "lit": "no", "name": "Villa Pia", "public_transport": "platform", "shelter": "yes", "tactile_paving": "no"}}, {"type": "node", "id": 4406654690, "lat": 43.4858448, "lon": -1.4912759, "tags": {"bench": "yes", "bin": "yes", "bus": "yes", "check_date:bench": "2025-08-06", "covered": "yes", "highway": "bus_stop", "lit": "yes", "name": "Marouette", "public_transport": "platform", "shelter": "yes", "tactile_paving": "yes"}}, {"type": "node", "id": 4406654691, "lat": 43.4858004, "lon": -1.4907483, "tags": {"bench": "yes", "bin": "yes", "bus": "yes", "check_date:bench": "2025-08-06", "covered": "yes", "highway": "bus_stop", "lit": "yes", "name": "Marouette", "public_transport": "platform", "shelter": "yes", "tactile_paving": "yes"}}, {"type": "node", "id": 4406973229, "lat": 43.4659265, "lon": -1.5381753, "tags": {"bus": "yes", "name": "Halle Iraty", "public_transport": "stop_position"}}, {"type": "node", "id": 4406973230, "lat": 43.4657442, "lon": -1.5407761, "tags": {"bench": "no", "bus": "yes", "highway": "bus_stop", "name": "Chapelet", "public_transport": "platform", "shelter": "no", "tactile_paving": "no"}}, {"type": "node", "id": 4406973231, "lat": 43.4659901, "lon": -1.540765, "tags": {"bench": "no", "bus": "yes", "highway": "bus_stop", "name": "Chapelet", "public_transport": "platform", "shelter": "no", "tactile_paving": "no"}}, {"type": "node", "id": 4406973232, "lat": 43.4643191, "lon": -1.5425142, "tags": {"bus": "yes", "highway": "bus_stop", "name": "Z.A. Biarritz", "public_transport": "platform"}}, {"type": "node", "id": 4406987094, "lat": 43.447765, "lon": -1.5570975, "tags": {"bench": "no", "bin": "no", "highway": "bus_stop", "lit": "no", "name": "Antoine d'Abbadie", "public_transport": "platform", "shelter": "no", "tactile_paving": "no"}},